[
  {
    "branch_code": "ABD",
    "branch_name": "AURANGABAD",
    "branch_address": "TRANSPORT HOUSE, PLOT NO. 9,10,11 AND 61 MIDC AREA, CHIKALTHANA.",
    "branch_city": "AURANGABAD",
    "branch_pincode": 431003,
    "branch_state": "MH",
    "branch_contact": "abd@tcifreight.in<br>9325906517<br>8956934055<br>",
    "lat": 19.87964124,
    "lon": 75.38709564
  },
  {
    "branch_code": "ABK",
    "branch_name": "AMBIKAPUR",
    "branch_address": "OPP. SHASHTRI AUTOMOTIVE, RING ROAD CHANDNI CHOWK AMBIKAPUR, DISTT.- SURGUA",
    "branch_city": "AMBIKAPUR",
    "branch_pincode": 497001,
    "branch_state": "CG",
    "branch_contact": "abk@tcifreight.in<br>7011653748<br><br>",
    "lat": 23.10771108,
    "lon": 83.16133458
  },
  {
    "branch_code": "ABRD",
    "branch_name": "ABU ROAD",
    "branch_address": "G-1-183, BHOHRA SLATE AMBAJI INDL ESTATE, BEHIND ARAVALI PLASTO PACKERS, ABUROAD, DISTT.- SIROHI",
    "branch_city": "ABU ROAD",
    "branch_pincode": 307026,
    "branch_state": "RJ",
    "branch_contact": "abrd@tcifreight.in<br>8448393527<br>",
    "lat": 24.48410833,
    "lon": 72.78846245
  },
  {
    "branch_code": "ABT",
    "branch_name": "AMBATTUR (MDS)",
    "branch_address": "NO. 16, PATTARAVKKAM RAILWAY STATION ROAD,AMBATTUR",
    "branch_city": "CHENNAI",
    "branch_pincode": 600098,
    "branch_state": "TN",
    "branch_contact": "abt@tcifreight.in<br>7305829794",
    "lat": 13.1193746,
    "lon": 80.1507648
  },
  {
    "branch_code": "ACP",
    "branch_name": "ATCHUTAPURAM",
    "branch_address": "INDIRAMMA COLONY, MARTURU ROAD, ATCHUTAPURAM VILLAGE AND MANDAL, VISAKHAPATNAM",
    "branch_city": "VISHAKAPATNAM",
    "branch_pincode": 531011,
    "branch_state": "AP",
    "branch_contact": "acp@tcifreight.in<br>8886665827",
    "lat": 17.56263478,
    "lon": 82.977489
  },
  {
    "branch_code": "AGL",
    "branch_name": "AGARTALA",
    "branch_address": "BHUTORIA COMPLEX, BK ROAD BANMALIPUR ROAD",
    "branch_city": "AGARTALA",
    "branch_pincode": 799001,
    "branch_state": "TR",
    "branch_contact": "agl@tcifreight.in<br>7011653263",
    "lat": 23.86382622,
    "lon": 91.36083781
  },
  {
    "branch_code": "AGR",
    "branch_name": "AGRA",
    "branch_address": "6/ 146, SURAJ BHAN PHATAK, BELANGUNJ",
    "branch_city": "AGRA",
    "branch_pincode": 282004,
    "branch_state": "UP",
    "branch_contact": "agr@tcifreight.in<br>7835047109<br>",
    "lat": 27.16051819,
    "lon": 78.03039174
  },
  {
    "branch_code": "AHMD",
    "branch_name": "AHMEDABAD",
    "branch_address": "KALIDAS MILL COMPOUND, NR. SARANGPUR BRIDGE, GOMTIPUR",
    "branch_city": "AHMEDABAD",
    "branch_pincode": 380021,
    "branch_state": "GJ",
    "branch_contact": "ahmd@tcifreight.in<br>8448393524<br>9311951835<br>22941023<br>",
    "lat": 23.02983343,
    "lon": 72.59954255
  },
  {
    "branch_code": "AJM",
    "branch_name": "AJMER",
    "branch_address": "PLOT NO-5, TOWER WALI GALI, 2ND STREET BEHIND KHALSA PETROL PUMP, PARBATPURA BYPASS JAIPUR ROAD, AJMER",
    "branch_city": "AJMER",
    "branch_pincode": 305002,
    "branch_state": "RJ",
    "branch_contact": "ajm@tcifreight.in<br>7011076962<br>7011544359",
    "lat": 26.41643764,
    "lon": 74.65532936
  },
  {
    "branch_code": "AKL",
    "branch_name": "AKOLA",
    "branch_address": "SIVANI MIDC, PHASE III",
    "branch_city": "AKOLA",
    "branch_pincode": 444001,
    "branch_state": "MH",
    "branch_contact": "akl@tcifreight.in<br>7011063886<br><br>",
    "lat": 20.71067589,
    "lon": 77.01069052
  },
  {
    "branch_code": "AKM",
    "branch_name": "ARKONAM",
    "branch_address": "TNHB DOOR NO. MIG 10 ,SITUATED AT PRAKASAM STREET, JOTHI NAGAR",
    "branch_city": "ARAKONAM",
    "branch_pincode": 631003,
    "branch_state": "TN",
    "branch_contact": "akm@tcifreight.in<br>7011043568",
    "lat": 13.10648638,
    "lon": 79.66683397
  },
  {
    "branch_code": "AKR",
    "branch_name": "A K MUKHERJEE ROAD (CAL)",
    "branch_address": "105, A.K. MUKHERJEE ROAD, BARANAGAR,(NEAR TAPAN CROSSING)",
    "branch_city": "KOLKATA",
    "branch_pincode": 700090,
    "branch_state": "WB",
    "branch_contact": "akr@tcifreight.in<br>bkg.akr@tcifreight.in<br>7011043526<br>7011653056<br>",
    "lat": 22.63747717,
    "lon": 88.38157527
  },
  {
    "branch_code": "AKV",
    "branch_name": "ANKLESWAR",
    "branch_address": "PLOT NO. 26/B, YOGI ESTATE-2, ANKLESHWAR, DIST- BHARUCH",
    "branch_city": "ANKLESHWAR",
    "branch_pincode": 393002,
    "branch_state": "GJ",
    "branch_contact": "akv@tcifreight.in<br>8587870343<br>7011064131<br>",
    "lat": 21.61611992,
    "lon": 73.01518358
  },
  {
    "branch_code": "ALD",
    "branch_name": "ALLAHABAD",
    "branch_address": "PLOT NO. 107 TO 109, TRANSPORT NAGAR MIRA PATTI MUNDERA",
    "branch_city": "ALLAHABAD",
    "branch_pincode": 211010,
    "branch_state": "UP",
    "branch_contact": "ald@tcifreight.in<br>8368390347<br>9026592178<br>",
    "lat": 25.35291533,
    "lon": 81.8857146
  },
  {
    "branch_code": "ALDI",
    "branch_name": "ALANDI",
    "branch_address": "ALANDI MARKAL ROAD, NEAR K.B. MOTOR, CHAROLI KHURD, TEHSIL- KHED",
    "branch_city": "PUNE",
    "branch_pincode": 412105,
    "branch_state": "MH",
    "branch_contact": "aldi@tcifreight.in<br>7011544342",
    "lat": 18.65613074,
    "lon": 73.86824547
  },
  {
    "branch_code": "ALG",
    "branch_name": "ALIGARH",
    "branch_address": "13/254, DUBEY KA PADAV, AGRA BOMBAY ROAD",
    "branch_city": "ALIGARH",
    "branch_pincode": 202001,
    "branch_state": "UP",
    "branch_contact": "alg@tcifreight.in<br>9318490990<br>",
    "lat": 27.89179666,
    "lon": 78.08132251
  },
  {
    "branch_code": "ALI",
    "branch_name": "ASLALI",
    "branch_address": "140-146, TRANSPORT NAGAR VILLAGE- ASLALI",
    "branch_city": "AHMEDABAD",
    "branch_pincode": 382427,
    "branch_state": "GJ",
    "branch_contact": "ali@tcifreight.in<br>7818899106<br>",
    "lat": 22.90402725,
    "lon": 72.58722685
  },
  {
    "branch_code": "ALP",
    "branch_name": "ALLEPPY",
    "branch_address": "47/335 A NEAR MATTANCHERY BRIDGE POWER HOUSE WARD ALAPPUZHA(ALLEPPEY)",
    "branch_city": "ALLEPPEY",
    "branch_pincode": 688007,
    "branch_state": "KL",
    "branch_contact": "alp@tcifreight.in<br>9625310496<br>9349098245<br>",
    "lat": 9.510326071,
    "lon": 76.32687786
  },
  {
    "branch_code": "ALW",
    "branch_name": "ALWAR",
    "branch_address": "TRANSPORT HOUSE, T-4, MATSYA INDUSTRIAL AREA DESULA, SWARG ROAD",
    "branch_city": "ALWAR",
    "branch_pincode": 301030,
    "branch_state": "RJ",
    "branch_contact": "alw@tcifreight.in<br>9318490989<br>7835047187<br>",
    "lat": 27.51694005,
    "lon": 76.67367025
  },
  {
    "branch_code": "ALY",
    "branch_name": "ALWAYE (ALUVA)",
    "branch_address": "PAS BUILDING NEAR AUTOPIE CAR WASH& DETAILING MARAYAPADY CURVE",
    "branch_city": "ALWAYE",
    "branch_pincode": 683102,
    "branch_state": "KL",
    "branch_contact": "aly@tcifreight.in<br>9873709613",
    "lat": 10.12071197,
    "lon": 76.33862615
  },
  {
    "branch_code": "AMB",
    "branch_name": "AMBETHAN",
    "branch_address": "GATE NO.299, KOREGAON PHATA NEAR PODAR ENGLISH MEDIUM SCHOOL, SHOP NO.5, AMBETHAN, TAL KHED, DIST- PUNE",
    "branch_city": "CHAKAN",
    "branch_pincode": 410501,
    "branch_state": "MH",
    "branch_contact": "amb@tcifreight.in<br>8178019252",
    "lat": 18.76103477,
    "lon": 73.85325716
  },
  {
    "branch_code": "AMBI",
    "branch_name": "AMBERNATH IRCTC",
    "branch_address": "NEAR JAMBHUL PHATA, BEHIND BABU AUTO GARAGE, KALYAN, BADLAPUR ROAD, DISTT – THANE",
    "branch_city": "MUMBAI",
    "branch_pincode": 421505,
    "branch_state": "MH",
    "branch_contact": "ambi@tcifreight.in<br>9625318849",
    "lat": 19.20796775,
    "lon": 73.2010946
  },
  {
    "branch_code": "AMBT",
    "branch_name": "AMBARNATH",
    "branch_address": "NEAR JAMBHUL PHATA, BEHIND BABU AUTO GARAGE, KALYAN, BADLAPUR ROAD, DISTT - THANE",
    "branch_city": "AMBARNATH",
    "branch_pincode": 421505,
    "branch_state": "MH",
    "branch_contact": "ambt@tcifreight.in<br>8956934050",
    "lat": 19.20796775,
    "lon": 73.2010946
  },
  {
    "branch_code": "AMC",
    "branch_name": "AMBALA CITY",
    "branch_address": "222, MARKANDEY COMPLEX,SENA NAGAR",
    "branch_city": "AMBALA",
    "branch_pincode": 134001,
    "branch_state": "HR",
    "branch_contact": "amc@tcifreight.in<br>7011063488<br>",
    "lat": 30.3834995,
    "lon": 76.7700321
  },
  {
    "branch_code": "AMCD",
    "branch_name": "AMBALA DELIVERY",
    "branch_address": "PLOT NO.1, 2, 3 BLOCK NO-3, NEAR RELIANCE TOWER, MOHRI, DIST-KURUKSHETRA",
    "branch_city": "AMBALA",
    "branch_pincode": 136135,
    "branch_state": "HR",
    "branch_contact": "amcd@tcifreight.in<br>9289171659",
    "lat": 30.1585628,
    "lon": 76.86275978
  },
  {
    "branch_code": "AMCT",
    "branch_name": "AMBALA CANTT",
    "branch_address": "SHOP NO-1085/18, ALOO GODAAM AMBALA CANTT, AMBALA, AMBALA",
    "branch_city": "AMBALA",
    "branch_pincode": 133001,
    "branch_state": "HR",
    "branch_contact": "amct@tcifreight.in<br><br>9289171658",
    "lat": 30.34200113,
    "lon": 76.85024717
  },
  {
    "branch_code": "AMRO",
    "branch_name": "AMROHA",
    "branch_address": "SALIMPUR ROAD, MOTI SHAH TAKIYA, NEAR RAILWAY CROSSING, AMROHA",
    "branch_city": "AMROHA",
    "branch_pincode": 244221,
    "branch_state": "UP",
    "branch_contact": "amro@tcifreight.in<br>7011062850",
    "lat": 28.89518962,
    "lon": 78.48414872
  },
  {
    "branch_code": "AMT",
    "branch_name": "AMRAVATI",
    "branch_address": "PLOT NO C-1 RAMLAXMAN SANKUL",
    "branch_city": "AMRAVATI",
    "branch_pincode": 444601,
    "branch_state": "MH",
    "branch_contact": "amt@tcifreight.in<br>9595787114",
    "lat": 20.92634426,
    "lon": 77.73558108
  },
  {
    "branch_code": "AND",
    "branch_name": "ANAND",
    "branch_address": "85, G.I.D.C., MAIN ROAD, NR RADHASWAMY RICE MILL V.V. NAGAR",
    "branch_city": "V.V. NAGAR",
    "branch_pincode": 388121,
    "branch_state": "GJ",
    "branch_contact": "and@tcifreight.in<br>9374050454<br>7011642679",
    "lat": 22.529676,
    "lon": 72.92574355
  },
  {
    "branch_code": "ANGL",
    "branch_name": "ANGUL",
    "branch_address": "MAIN ROAD, NR.HOTEL SANDHYA",
    "branch_city": "ANGUL",
    "branch_pincode": 759122,
    "branch_state": "OR",
    "branch_contact": "angl@tcifreight.in<br>8448393485<br><br>",
    "lat": 20.84169466,
    "lon": 85.09826672
  },
  {
    "branch_code": "ANR",
    "branch_name": "AHMEDNAGAR",
    "branch_address": "TRANSPORT HOUSE, BURDGAON ROAD",
    "branch_city": "AHMEDNAGAR",
    "branch_pincode": 414001,
    "branch_state": "MH",
    "branch_contact": "anr@tcifreight.in<br>7011374482",
    "lat": 19.10996114,
    "lon": 74.74966814
  },
  {
    "branch_code": "ANRM",
    "branch_name": "AHMEDNAGAR M.I.D.C",
    "branch_address": "PLOT NO, P 18, MIDC INDL. AREA, OPP. CHAKAN OIL MILL",
    "branch_city": "AHMEDNAGAR",
    "branch_pincode": 414111,
    "branch_state": "MH",
    "branch_contact": "anrm@tcifreight.in<br>9021165766<br>2777801",
    "lat": 19.17622234,
    "lon": 74.69210238
  },
  {
    "branch_code": "ASBG",
    "branch_name": "ASANBANI GODOWN",
    "branch_address": "VILLAGE- ASANBANI,P.O.-KANDERBERA, VIA CHANDIL, DISTT.-SINGHBHOOMI",
    "branch_city": "JAMSHEDPUR",
    "branch_pincode": 831001,
    "branch_state": "JH",
    "branch_contact": "asbg@tcifreight.in<br>9315839574",
    "lat": 22.80977006,
    "lon": 86.16901785
  },
  {
    "branch_code": "ASL",
    "branch_name": "ASANSOL",
    "branch_address": "OPP. ASANSOL STEEL COSTING, 836, SIRPUR VILLAGE ROAD, POST- NINGHA, PS. - JAMURIA ASANSOL, DISTT.-BURDWAN",
    "branch_city": "ASANSOL",
    "branch_pincode": 713370,
    "branch_state": "WB",
    "branch_contact": "asl@tcifreight.in<br>7011043582<br>8336044467",
    "lat": 23.6871297,
    "lon": 86.9746587
  },
  {
    "branch_code": "ASR",
    "branch_name": "AMRITSAR",
    "branch_address": "PLOT NO. 30, JAI INDER SINGH TRANSPORT NAGAR, JAHAJGARH",
    "branch_city": "AMRITSAR",
    "branch_pincode": 143006,
    "branch_state": "PB",
    "branch_contact": "asr@tcifreight.in<br>9569924630<br>2584630",
    "lat": 31.61695548,
    "lon": 74.88584441
  },
  {
    "branch_code": "ATB",
    "branch_name": "ATTIBELE",
    "branch_address": "SHOP NUMBER 04, SY NO 26/3-A BALAGARANAHALLI VILLAGE (HOSUR MAIN ROAD ,NEAR GUDAHATTI GATE BUS STOP) , ATTIBLELE",
    "branch_city": "BANGALORE",
    "branch_pincode": 562107,
    "branch_state": "KA",
    "branch_contact": "atb@tcifreight.in<br>7827942735",
    "lat": 12.77806965,
    "lon": 77.74184963
  },
  {
    "branch_code": "ATG",
    "branch_name": "ATGAON",
    "branch_address": "BUILDING NO.14, GALA NO.15, SANGHVI PARSSSVA CITY, ATGAON, THANE",
    "branch_city": "THANA",
    "branch_pincode": 421601,
    "branch_state": "MH",
    "branch_contact": "atg@tcifreight.in<br>9205209557",
    "lat": 19.44494242,
    "lon": 73.31651568
  },
  {
    "branch_code": "ATP",
    "branch_name": "ANANTAPUR",
    "branch_address": "NEAR SHANTI NURSING HOME, 80 FEET ROAD, CHANDERSEKHAR REDDY COMPLEX, VENUGOPAL NAGAR",
    "branch_city": "ANANTAPUR",
    "branch_pincode": 515001,
    "branch_state": "AP",
    "branch_contact": "atp@tcifreight.in<br>8099929340",
    "lat": 14.6734442,
    "lon": 77.60027021
  },
  {
    "branch_code": "AURI",
    "branch_name": "AURIMORE",
    "branch_address": "SAHARA COMPLEX, BINA ROAD, AURIMORE, P.O. ANPARA, DIST. SONEBHADRA",
    "branch_city": "AURIMORE",
    "branch_pincode": 231225,
    "branch_state": "UP",
    "branch_contact": "auri@tcifreight.in<br>7011653168",
    "lat": 24.2010684,
    "lon": 82.7714789
  },
  {
    "branch_code": "BAG",
    "branch_name": "BAHADURGARH",
    "branch_address": "PLOT NO-828, NALA ROAD, SANKHOL, THESIL-BAHADURGARH, DIST-JHAJJAR",
    "branch_city": "BAHADURGARH",
    "branch_pincode": 124507,
    "branch_state": "HR",
    "branch_contact": "bag@tcifreight.in<br>7835047118<br>8448393491",
    "lat": 28.68361134,
    "lon": 76.92603117
  },
  {
    "branch_code": "BAM",
    "branch_name": "BERHAMPUR",
    "branch_address": "ASKA ROAD, NEW TALUKA, GRAM DEBATI STREET",
    "branch_city": "BERHAMPUR",
    "branch_pincode": 760006,
    "branch_state": "OR",
    "branch_contact": "bam@tcifreight.in<br>7011653313<br>",
    "lat": 21.49308515,
    "lon": 86.63272983
  },
  {
    "branch_code": "BAN",
    "branch_name": "BAWANA",
    "branch_address": "KHASRA NO. 154/ 1/ 3, GORUND FLOOR, EXTENDED LAL DORA, VILLAGE - POOTH KHURD, FIRNI ROAD, BAWANA",
    "branch_city": "DELHI",
    "branch_pincode": 110039,
    "branch_state": "DL",
    "branch_contact": "ban@tcifreight.in<br>8368389671",
    "lat": 28.79893327,
    "lon": 77.04005748
  },
  {
    "branch_code": "BAP",
    "branch_name": "BADARPUR (DELHI)",
    "branch_address": "SHOP NO. 3, NEAR JOHAR MOTER, OPP. METRO STATION MAIN MATHURA ROAD, BADARPUR BORDER NEW DELHI",
    "branch_city": "NEW DELHI",
    "branch_pincode": 110044,
    "branch_state": "DL",
    "branch_contact": "bap@tcifreight.in<br>7011062480",
    "lat": 28.51380084,
    "lon": 77.30202683
  },
  {
    "branch_code": "BBK",
    "branch_name": "BARABANKI",
    "branch_address": "SATTOKAR TALAB, HAIDERGARH ROAD, DASHARABAG",
    "branch_city": "BARABANKI",
    "branch_pincode": 225001,
    "branch_state": "UP",
    "branch_contact": "bbk@tcifreight.in<br>7011642554<br>",
    "lat": 26.91311893,
    "lon": 81.26077539
  },
  {
    "branch_code": "BBSR",
    "branch_name": "BHUBANESHWAR",
    "branch_address": "82, BAPUJI NAGAR",
    "branch_city": "BHUBANESHWAR",
    "branch_pincode": 751009,
    "branch_state": "OR",
    "branch_contact": "bbsr@tcifreight.in<br>7011076740<br>2598200",
    "lat": 20.25710291,
    "lon": 85.82894853
  },
  {
    "branch_code": "BCMG",
    "branch_name": "BICHOLIM GOA",
    "branch_address": "NEAR NEO COLLECTION AND BATA SHOWROOM H.NO 159, SATIS WADA BORDEM BICHOLIM , GOA",
    "branch_city": "PANJIM",
    "branch_pincode": 403504,
    "branch_state": "GA",
    "branch_contact": "bcmg@tcifreight.in<br>7011544262<br>",
    "lat": 15.5886669,
    "lon": 73.94921599
  },
  {
    "branch_code": "BDD",
    "branch_name": "BADDI",
    "branch_address": "SAI ROAD, NEAR BHARDWAJ HOSPITAL, BADDI, DIST SOLAN",
    "branch_city": "BADDI",
    "branch_pincode": 173205,
    "branch_state": "HP",
    "branch_contact": "bdd@tcifreight.in<br>7835047108<br>9318765278<br>245832",
    "lat": 30.94465895,
    "lon": 76.80718526
  },
  {
    "branch_code": "BDH",
    "branch_name": "BHADOHI",
    "branch_address": "MADHOSINGH, NEAR PUNJAB NATIONAL BANK, TALUKA-BHADOHI",
    "branch_city": "SANT RAVIDAS NAGAR",
    "branch_pincode": 221404,
    "branch_state": "UP",
    "branch_contact": "bdh@tcifreight.in<br>8448393531<br><br><br>",
    "lat": 25.4629068,
    "lon": 82.4345422
  },
  {
    "branch_code": "BDI",
    "branch_name": "BIDADI",
    "branch_address": "57/1, SHANUMANGALA ROAD, BIDADI INDUSTRIAL AREA, RAMNAGAR TALUK, BIDADI",
    "branch_city": "BANGALORE",
    "branch_pincode": 562109,
    "branch_state": "KA",
    "branch_contact": "8595299864",
    "lat": 12.7836706,
    "lon": 77.41612643
  },
  {
    "branch_code": "BDK",
    "branch_name": "BHADRAK",
    "branch_address": "BAZAR STREET, CHARAMPA",
    "branch_city": "BHADRAK",
    "branch_pincode": 756101,
    "branch_state": "OR",
    "branch_contact": "bdk@tcifreight.in<br>7011653320",
    "lat": 21.07810279,
    "lon": 86.50637206
  },
  {
    "branch_code": "BDP",
    "branch_name": "BHANDUP (BBYN)",
    "branch_address": "SUBASH NAGAR, KHALSA COMPOUND BHANDUP WEST MUMBAI",
    "branch_city": "MUMBAI",
    "branch_pincode": 400078,
    "branch_state": "MH",
    "branch_contact": "bdp@tcifreight.in<br>7011642520<br>",
    "lat": 19.14884694,
    "lon": 72.93548055
  },
  {
    "branch_code": "BDR",
    "branch_name": "BIDAR",
    "branch_address": "9-6-58, GANDHI GANJ, NEAR SMP WEIGH BRIDGE",
    "branch_city": "BIDAR",
    "branch_pincode": 585401,
    "branch_state": "KA",
    "branch_contact": "bdr@tcifreight.in<br>7011375030",
    "lat": 17.91450721,
    "lon": 77.51581028
  },
  {
    "branch_code": "BDVT",
    "branch_name": "BHADRAVATI",
    "branch_address": "NEW BRIDGE ROAD, OPP. BAJAJ SHOW ROOM, SIDDHARUDHA NAGAR",
    "branch_city": "BHADRAVATI",
    "branch_pincode": 577301,
    "branch_state": "KA",
    "branch_contact": "bdvt@tcifreight.in<br>7011642536",
    "lat": 13.84534332,
    "lon": 75.70431953
  },
  {
    "branch_code": "BGM",
    "branch_name": "BELGAUM",
    "branch_address": "PLOT NO 71, SY NO 340/2, BEHIND AIW PLANT 1, DNYAN PRABODHAN MANDIR ROAD,UDYAMBAG, BELGAUM, BELAGAVI, BELAGAVI",
    "branch_city": "BELGAUM",
    "branch_pincode": 590008,
    "branch_state": "KA",
    "branch_contact": "bgm@tcifreight.in<br>8448393544<br>",
    "lat": 15.82177278,
    "lon": 74.4945048
  },
  {
    "branch_code": "BGP",
    "branch_name": "BHAGALPUR",
    "branch_address": "NETA JI SUBHASH CHANDRA BOSE MARG GANJI MILL PHASE – 2 TILKAMANJI",
    "branch_city": "BHAGALPUR",
    "branch_pincode": 812001,
    "branch_state": "BR",
    "branch_contact": "bgp@tcifreight.in<br>8595371579<br>000",
    "lat": 25.29388419,
    "lon": 86.93457334
  },
  {
    "branch_code": "BGR",
    "branch_name": "BAGRU",
    "branch_address": "SHOP NO.28, BALAJI MARKET, AT- DEHMI KALA AJMER ROAD, BAGRU, JAIPUR",
    "branch_city": "JAIPUR",
    "branch_pincode": 303007,
    "branch_state": "RJ",
    "branch_contact": "bgr@tcifreight.in",
    "lat": 26.83638057,
    "lon": 75.56695019
  },
  {
    "branch_code": "BGS",
    "branch_name": "BEGUSARAI",
    "branch_address": "MAIN ROAD, NEAR G.D. COLLEGE",
    "branch_city": "BEGUSARAI",
    "branch_pincode": 851101,
    "branch_state": "BR",
    "branch_contact": "bgs@tcifreight.in<br>8178022703<br>242904",
    "lat": 25.41433862,
    "lon": 86.11099751
  },
  {
    "branch_code": "BHA",
    "branch_name": "BEHALA (CAL)",
    "branch_address": "P-48, TRANSPORT DEPOT ROAD, NEAR MAJERHAT RAILWAY CROSSING, TARATALA",
    "branch_city": "KOLKATA",
    "branch_pincode": 700088,
    "branch_state": "WB",
    "branch_contact": "bha@tcifreight.in<br>8882912874<br>8448393486<br>",
    "lat": 22.501572,
    "lon": 88.3209435
  },
  {
    "branch_code": "BHJ",
    "branch_name": "BHUJ",
    "branch_address": "SREEHARI BHAVAN, BEHIND PRINCE HOTEL ,NEW STATION ROAD",
    "branch_city": "BHUJ",
    "branch_pincode": 370001,
    "branch_state": "GJ",
    "branch_contact": "bhj@tcifreight.in<br>7818063928<br><br>",
    "lat": 23.30397498,
    "lon": 69.65170285
  },
  {
    "branch_code": "BHL",
    "branch_name": "BHILWARA",
    "branch_address": "TCI HOUSE, PLOT NO. 97/98, TRANSPORT NAGAR",
    "branch_city": "BHILWARA",
    "branch_pincode": 311001,
    "branch_state": "RJ",
    "branch_contact": "bhl@tcifreight.in<br>9318490976<br>9318490976<br>",
    "lat": 25.36237635,
    "lon": 74.6397889
  },
  {
    "branch_code": "BHR",
    "branch_name": "BHAVNAGAR",
    "branch_address": "NEAR ALKA TALKIES",
    "branch_city": "BHAVNAGAR",
    "branch_pincode": 364001,
    "branch_state": "GJ",
    "branch_contact": "bhr@tcifreight.in<br>7011642740<br>2430170<br>8447951649",
    "lat": 21.76590675,
    "lon": 72.13420942
  },
  {
    "branch_code": "BHRH",
    "branch_name": "BHAIRHAWA",
    "branch_address": "SIDHARTHA RAJ MARG, SIDHARTHANAGAR",
    "branch_city": "BHAIRHAWA",
    "branch_pincode": 666666,
    "branch_state": "NP",
    "branch_contact": "9860427072<br>520641",
    "lat": 27.5074802,
    "lon": 83.4013464
  },
  {
    "branch_code": "BJP",
    "branch_name": "BIJAPUR",
    "branch_address": "JOGUR AND KATTI COMPANY COMPOUND OPP. RAYAT BHAWAN, APMC MARKET YARD",
    "branch_city": "BIJAPUR",
    "branch_pincode": 586101,
    "branch_state": "KA",
    "branch_contact": "bjp@tcifreight.in<br>7011544282",
    "lat": 16.8292116,
    "lon": 75.71357502
  },
  {
    "branch_code": "BKN",
    "branch_name": "BIKANER",
    "branch_address": "F-98, PHASE-1, BICHWAL INDUSTRIAL AREA",
    "branch_city": "BIKANER",
    "branch_pincode": 334006,
    "branch_state": "RJ",
    "branch_contact": "bkn@tcifreight.in<br>7011642546<br>",
    "lat": 28.0159286,
    "lon": 73.3171367
  },
  {
    "branch_code": "BKRL",
    "branch_name": "BAKROL",
    "branch_address": "A/1/B, DEVBHUMI ESTATE, B/H NANDANVAN, BAKROL DHAMTVAN ROAD, BAKROL, AHMEDABAD",
    "branch_city": "AHMEDABAD",
    "branch_pincode": 382433,
    "branch_state": "GJ",
    "branch_contact": "bkrl@tcifreight.in<br>8595298637",
    "lat": 23.00052374,
    "lon": 72.67230694
  },
  {
    "branch_code": "BKT",
    "branch_name": "BHAGALKOT",
    "branch_address": "OPP YAMAHA SHOW ROOM, JANTA PLOT JAMKHANDI ROAD WARD NO 10, TP NO 73, CTS NO. 2301 / A / 1 PLOT NO 143 /",
    "branch_city": "MUDHOL",
    "branch_pincode": 587313,
    "branch_state": "KA",
    "branch_contact": "bkt@tcifreight.in<br>7011544283",
    "lat": 16.33467292,
    "lon": 75.27543164
  },
  {
    "branch_code": "BLGR",
    "branch_name": "BALANGIR",
    "branch_address": "SONEPUR ROAD , AT-PUINTALA DIST-BALANGIR",
    "branch_city": "BALANGIR",
    "branch_pincode": 767001,
    "branch_state": "OR",
    "branch_contact": "blgr@tcifreight.in<br>7011653421<br>",
    "lat": 20.70441815,
    "lon": 83.48813566
  },
  {
    "branch_code": "BLI",
    "branch_name": "BHILAI",
    "branch_address": "OPP.MINI STEDIUM, NEAR GURUDWARA, G.E. ROAD, NEW KHURSIPAR",
    "branch_city": "BHILAI",
    "branch_pincode": 490011,
    "branch_state": "CG",
    "branch_contact": "bli@tcifreight.in<br>2280916<br>9329021441",
    "lat": 21.229962,
    "lon": 81.769413
  },
  {
    "branch_code": "BLIS",
    "branch_name": "BHILAI SISCOL",
    "branch_address": "OPP. MINI STADIUM, GURUDWARA G.E. ROAD, NEW KHURSIPAR, NEAR GURUDWARA",
    "branch_city": "BHILAI",
    "branch_pincode": 490012,
    "branch_state": "CG",
    "branch_contact": "blis@tcifreight.in<br>7827929841",
    "lat": 21.2120677,
    "lon": 81.3732849
  },
  {
    "branch_code": "BLPR",
    "branch_name": "BELAPUR ROAD (TNA)",
    "branch_address": "GALA NO. PAPR – 447, OPP. MSEB OFFICE, NEAR DOL ELECTRIC CO., MIDC, RABALE, NAVI MUMBAI",
    "branch_city": "MUMBAI",
    "branch_pincode": 400701,
    "branch_state": "MH",
    "branch_contact": "blpr@tcifreight.in<br>9323087321<br>",
    "lat": 19.12294305,
    "lon": 73.00284606
  },
  {
    "branch_code": "BLR",
    "branch_name": "BELLARY",
    "branch_address": "D-3, KSSIC, 1ST INDUSTRIAL AREA, BANGALORE ROAD, MARAMMA, TEMPLE",
    "branch_city": "BELLARY",
    "branch_pincode": 583101,
    "branch_state": "KA",
    "branch_contact": "blr@tcifreight.in<br>7011544375<br>271349",
    "lat": 15.14741044,
    "lon": 76.92173744
  },
  {
    "branch_code": "BLS",
    "branch_name": "BALASORE",
    "branch_address": "N.H. 5, REMUNA GOLAI, P.O. JANUGANJ",
    "branch_city": "BALASORE",
    "branch_pincode": 756020,
    "branch_state": "OR",
    "branch_contact": "bls@tcifreight.in<br>7011653424<br>",
    "lat": 21.5698282,
    "lon": 86.79126827
  },
  {
    "branch_code": "BMS",
    "branch_name": "BOMMASANDRA (BNG)",
    "branch_address": "NO.5, NARASIMAIAH BUILDING, 1ST-A CROSS, OPP. SKF VIDYANAGAR, BOMMASANDRA",
    "branch_city": "BANGALORE",
    "branch_pincode": 560099,
    "branch_state": "KA",
    "branch_contact": "bms@tcifreight.in<br>9342819874<br>8042150494",
    "lat": 12.83984195,
    "lon": 77.7242679
  },
  {
    "branch_code": "BNDR",
    "branch_name": "BHANDARA",
    "branch_address": "NEAR PRAKASH HIGH SCHOOL, KARDHA RICE MILL COMPOUND BHANDARA",
    "branch_city": "BHANDARA",
    "branch_pincode": 441904,
    "branch_state": "MH",
    "branch_contact": "bndr@tcifreight.in<br>7835047139",
    "lat": 21.1783387,
    "lon": 79.66655102
  },
  {
    "branch_code": "BNG",
    "branch_name": "BANGALORE",
    "branch_address": "TRANSPORT HOUSE NO 57/58, 2ND CROSS ,1ST FLOOR , KALASIPALAYAM NEW EXTN , BANGALORE",
    "branch_city": "BANGALORE",
    "branch_pincode": 560002,
    "branch_state": "KA",
    "branch_contact": "bng@tcifreight.in<br>dly.bng@tcifreight.in<br>bkg.bng@tcifreight.in<br>9342445021<br><br>7011642761<br>7835047153<br><br>",
    "lat": 12.9634209,
    "lon": 77.57942001
  },
  {
    "branch_code": "BNGK",
    "branch_name": "BANGALORE CANTONMENT",
    "branch_address": "NO. V-30(C), 10TH MAIN ROAD, INDUSTRIAL ESTATE, PEENYA, 2ND STAGE",
    "branch_city": "BANGALORE",
    "branch_pincode": 560058,
    "branch_state": "KA",
    "branch_contact": "bngk@tcifreight.in<br>9342819710",
    "lat": 13.0254125,
    "lon": 77.50902345
  },
  {
    "branch_code": "BNK",
    "branch_name": "BANKURA",
    "branch_address": "DURGAPUR BYPASS ROAD, LALBAZAR, NH- 60",
    "branch_city": "BANKURA",
    "branch_pincode": 722101,
    "branch_state": "WB",
    "branch_contact": "bnk@tcifreight.in<br>7011642743<br>",
    "lat": 23.23173141,
    "lon": 87.05851934
  },
  {
    "branch_code": "BOLR",
    "branch_name": "BOLLARAM",
    "branch_address": "SHOP. 3 & 4 IDA BOLLARAM , DISTRICT- SANGAREADY",
    "branch_city": "HYDERABAD",
    "branch_pincode": 502325,
    "branch_state": "TS",
    "branch_contact": "bolr@tcifreight.in<br>8076299276",
    "lat": 17.5495939,
    "lon": 78.3423573
  },
  {
    "branch_code": "BONG",
    "branch_name": "BONGAIGAON",
    "branch_address": "NH 31C, P.O.- CHAPRAGURI (DHALIGAON), DISTT.-CHIRANG (BTAD)",
    "branch_city": "BONGAIGAON",
    "branch_pincode": 783380,
    "branch_state": "AS",
    "branch_contact": "bong@tcifreight.in<br>9354925271",
    "lat": 26.46479565,
    "lon": 90.56117251
  },
  {
    "branch_code": "BPL",
    "branch_name": "BHOPAL",
    "branch_address": "126 RASLAKHEDI, INFORNT OF VIDHATA MULTI SPECIALITY HOSPITAL, BHANPUR VIDISHA ROAD BHANPUR, BHOPAL",
    "branch_city": "BHOPAL",
    "branch_pincode": 462010,
    "branch_state": "MP",
    "branch_contact": "bpl@tcifreight.in<br>7835047176<br><br>",
    "lat": 23.28715521,
    "lon": 77.41659011
  },
  {
    "branch_code": "BPSI",
    "branch_name": "BELAPUR SIEMENS",
    "branch_address": "GALA NO. PAPR – 447, OPP. MSEB OFFICE, NEAR DOL ELECTRIC CO., MIDC, RABALE, NAVI MUMBAI",
    "branch_city": "MUMBAI",
    "branch_pincode": 400701,
    "branch_state": "MH",
    "branch_contact": "kamsupport.siemens@tcifreight.in<br>7498069745",
    "lat": 19.12294305,
    "lon": 73.00284606
  },
  {
    "branch_code": "BRB",
    "branch_name": "BARBIL",
    "branch_address": "WARD NO 4 NEAR CINEMA HALL PO/PS BARBIL DIS . KEONJHAR",
    "branch_city": "BARBIL",
    "branch_pincode": 758035,
    "branch_state": "OR",
    "branch_contact": "brb@tcifreight.in<br>9337022645",
    "lat": 22.09943232,
    "lon": 85.38462153
  },
  {
    "branch_code": "BRBM",
    "branch_name": "BARIBRAHMNA",
    "branch_address": "WARD NO. 05, RAJEEV COLONY, CANAL ROAD, NEAR SIDCO CHOWK",
    "branch_city": "BARIBRAHMNA",
    "branch_pincode": 181133,
    "branch_state": "JK",
    "branch_contact": "brbm@tcifreight.in<br>9419123514<br>7011063846",
    "lat": 32.63639983,
    "lon": 74.91852478
  },
  {
    "branch_code": "BRC",
    "branch_name": "BROACH",
    "branch_address": "NR HOTEL SANMAN, GIDC-CHAR RASTA, NARMADA NGR, OLD NATIONAL HIGHWAY",
    "branch_city": "BHARUCH",
    "branch_pincode": 392015,
    "branch_state": "GJ",
    "branch_contact": "brc@tcifreight.in<br>7011374675<br>",
    "lat": 21.7265684,
    "lon": 73.02615055
  },
  {
    "branch_code": "BRD",
    "branch_name": "VADODARA",
    "branch_address": "TCI HOUSE, BEHIND VIHAR CINEMA, NEAR JAIN MANDIR, PRATAPNAGAR",
    "branch_city": "BARODA",
    "branch_pincode": 390004,
    "branch_state": "GJ",
    "branch_contact": "brd@tcifreight.in<br>9582289234<br><br>",
    "lat": 22.27713146,
    "lon": 73.21320676
  },
  {
    "branch_code": "BRDN",
    "branch_name": "BURDWAN",
    "branch_address": "116 KALNA ROAD, BADAMTALA",
    "branch_city": "BARDHAMAN",
    "branch_pincode": 713101,
    "branch_state": "WB",
    "branch_contact": "brdn@tcifreight.in<br>7011652946",
    "lat": 23.26312265,
    "lon": 87.85436189
  },
  {
    "branch_code": "BRF",
    "branch_name": "BIHARSHARIFF",
    "branch_address": "SOHSARAI CHOWK NEAR UJALA GENERAL STORE, SOHSARAI, BIHARSHARIF, DIST- NALANDA",
    "branch_city": "BIHARSHARIFF",
    "branch_pincode": 803101,
    "branch_state": "BR",
    "branch_contact": "brf@tcifreight.in<br>9315962608<br>9608536572<br>232168",
    "lat": 25.21511939,
    "lon": 85.53284077
  },
  {
    "branch_code": "BRG",
    "branch_name": "BARGARH",
    "branch_address": "NR. TOLE GATE, ZIRA BRIDGE",
    "branch_city": "BARGARH",
    "branch_pincode": 768028,
    "branch_state": "OR",
    "branch_contact": "brg@tcifreight.in<br>8851578684",
    "lat": 21.34278621,
    "lon": 83.61197992
  },
  {
    "branch_code": "BRGJ",
    "branch_name": "BIRGANJ",
    "branch_address": "MAIN ROAD NEAR CHAPAKAIYA CINEMA HALL CHAPAKAIYA,BIRGANJ",
    "branch_city": "BIRGANJ",
    "branch_pincode": 666666,
    "branch_state": "NP",
    "branch_contact": "brgj@tcifreight.in<br>79745086232<br>9471691178<br>522546",
    "lat": 27.0135196,
    "lon": 84.8763804
  },
  {
    "branch_code": "BRMT",
    "branch_name": "BARAMATI",
    "branch_address": "40 GIN NIRA CANAL SOCIETY GODOWN, JALOCHI BHIGWAN ROAD, BARAMATI, DIST-POONA",
    "branch_city": "BARAMATI",
    "branch_pincode": 413102,
    "branch_state": "MH",
    "branch_contact": "brmt@tcifreight.in<br>7011642644",
    "lat": 18.16089821,
    "lon": 74.562423
  },
  {
    "branch_code": "BRN",
    "branch_name": "BARNALA",
    "branch_address": "MANSA ROAD, OPP. TRIDENT LIMITED PARKING, DHAULA, BARNALA",
    "branch_city": "BARNALA",
    "branch_pincode": 148107,
    "branch_state": "PB",
    "branch_contact": "brn@tcifreight.in<br>7011043613",
    "lat": 30.30463609,
    "lon": 75.49859089
  },
  {
    "branch_code": "BRW",
    "branch_name": "BARWALA",
    "branch_address": "SHOP NO-3, NEAR SHIV MANDIR, VILLAGE- NAGAL, BARWALA, DIST-PANCHKULA",
    "branch_city": "PANCHKULA",
    "branch_pincode": 134118,
    "branch_state": "HR",
    "branch_contact": "brw@tcifreight.in<br>9289171660",
    "lat": 30.58199922,
    "lon": 76.94050667
  },
  {
    "branch_code": "BRY",
    "branch_name": "BAREILLY",
    "branch_address": "LEECHI BAGH, KILA, RAMPUR ROAD",
    "branch_city": "BAREILLY",
    "branch_pincode": 243001,
    "branch_state": "UP",
    "branch_contact": "bry@tcifreight.in<br>7011062851",
    "lat": 28.36071579,
    "lon": 79.42235392
  },
  {
    "branch_code": "BSL",
    "branch_name": "BHUSAWAL",
    "branch_address": "S.NO.5811, PLOT NO.4, BAMB SHOPPING COMPLEX, MAHALAXMI NAGAR N.H. NO. 6",
    "branch_city": "BHUSAWAL",
    "branch_pincode": 425201,
    "branch_state": "MH",
    "branch_contact": "bsl@tcifreight.in<br>7011374556",
    "lat": 21.04099907,
    "lon": 75.76832931
  },
  {
    "branch_code": "BSP",
    "branch_name": "BILASPUR",
    "branch_address": "PLOT NO.38 & 39 TRANSPORT NAGAR, M & M AUTO CENTRE, NEAR WATER TANK, SIRGITI INDUSTRIAL AREA",
    "branch_city": "BILASPUR",
    "branch_pincode": 495001,
    "branch_state": "CG",
    "branch_contact": "bsp@tcifreight.in<br>7879839513<br>",
    "lat": 22.07475997,
    "lon": 82.13398881
  },
  {
    "branch_code": "BSW",
    "branch_name": "BANSWARA",
    "branch_address": "OLD J C MILL OPP.DURGA PETROL PUMP DAHOD ROAD",
    "branch_city": "BANSWARA",
    "branch_pincode": 327001,
    "branch_state": "RJ",
    "branch_contact": "bsw@tcifreight.in<br>7011375511",
    "lat": 23.59439662,
    "lon": 74.46475168
  },
  {
    "branch_code": "BTB",
    "branch_name": "BUTIBORI",
    "branch_address": "SHED NO.W/24, NR. INDORAMA COLONY, GATE NO-1, MIDC-BUTIBORI",
    "branch_city": "NAGPUR",
    "branch_pincode": 441108,
    "branch_state": "MH",
    "branch_contact": "btb@tcifreight.in<br>9372333315<br>",
    "lat": 20.97476697,
    "lon": 79.02114234
  },
  {
    "branch_code": "BTD",
    "branch_name": "BHATINDA",
    "branch_address": "HAZI RATTAN, G.T. ROAD",
    "branch_city": "BATHINDA",
    "branch_pincode": 151001,
    "branch_state": "PB",
    "branch_contact": "btd@tcifreight.in<br>7011063847<br>2211003",
    "lat": 30.21356824,
    "lon": 74.94682357
  },
  {
    "branch_code": "BTL",
    "branch_name": "BATALA",
    "branch_address": "G.T. ROAD, MASJID WALI GALLI, BATALA-DIST. GURDASPUR",
    "branch_city": "BATALA",
    "branch_pincode": 143505,
    "branch_state": "PB",
    "branch_contact": "btl@tcifreight.in<br>9318490972<br>9569924631",
    "lat": 31.81820187,
    "lon": 75.2115788
  },
  {
    "branch_code": "BTNR",
    "branch_name": "BIRATNAGAR",
    "branch_address": "MAHAVIR CHOWK, DHARAN ROAD, BIRATNAGAR",
    "branch_city": "BIRATNAGAR",
    "branch_pincode": 666666,
    "branch_state": "NP",
    "branch_contact": "9804097785<br>522074",
    "lat": 26.4623007,
    "lon": 87.281617
  },
  {
    "branch_code": "BTUL",
    "branch_name": "BETUL",
    "branch_address": "SONAGHATI, OPP.SIDE SATPUDA VALLY PUBLIC SCHOOL, BETUL",
    "branch_city": "BETUL",
    "branch_pincode": 460001,
    "branch_state": "MP",
    "branch_contact": "btul@tcifreight.in<br>7011073438<br>",
    "lat": 21.88400754,
    "lon": 77.88248535
  },
  {
    "branch_code": "BUL",
    "branch_name": "BULSAR",
    "branch_address": "16 CM RANA COMPLEX, NEAR GUNDLAV CHAAR RASTA, KHERGAM ROAD, GUNDLAV",
    "branch_city": "BULSAR",
    "branch_pincode": 396035,
    "branch_state": "GJ",
    "branch_contact": "bul@tcifreight.in<br>8448393461<br>",
    "lat": 20.6067767,
    "lon": 72.9272881
  },
  {
    "branch_code": "BWD",
    "branch_name": "BHIWANDI",
    "branch_address": "NR KOPAR VILLAGE BUS STOP, THANA-BHIWANDI ,RD, P.O. KALHER",
    "branch_city": "MUMBAI",
    "branch_pincode": 421302,
    "branch_state": "MH",
    "branch_contact": "bwd@tcifreight.in<br>dly.bwd@tcifreight.in<br>9205298064<br>8448393516<br>9324645028<br>9354922392<br>7498740011<br>8956934051",
    "lat": 19.29693409,
    "lon": 73.05295856
  },
  {
    "branch_code": "BWDG",
    "branch_name": "BHIWANDI GODOWN",
    "branch_address": "SAIRAJ LOGISTICS HUB, BUILDING NO. B-3, GODOWN NO. 9 AND 10, OPP. ALL SAINTS HIGH SCHOOL, VILL-BHAVALE, BHIWANDI",
    "branch_city": "MUMBAI",
    "branch_pincode": 421302,
    "branch_state": "MH",
    "branch_contact": "bwdg@tcifreight.in<br>9599051813",
    "lat": 19.29693409,
    "lon": 73.05295856
  },
  {
    "branch_code": "BWDI",
    "branch_name": "BHIWADI",
    "branch_address": "TRANSPORT HOUSE, C/1 INDUSTRIAL AREA BHIWADI, DIST. ALWAR",
    "branch_city": "BHIWADI",
    "branch_pincode": 301019,
    "branch_state": "RJ",
    "branch_contact": "bwdi@tcifreight.in<br>8010931183<br>9529578360<br>222723",
    "lat": 28.2051792,
    "lon": 76.82931498
  },
  {
    "branch_code": "BWL",
    "branch_name": "BAWAL",
    "branch_address": "SHOP NO.2, VILLAGE-ASALWAS, NEAR BABA AZADNATH DHARMKANTA, NH-8, DELHI JAIPUR ROAD BAWAL",
    "branch_city": "BAWAL",
    "branch_pincode": 123501,
    "branch_state": "HR",
    "branch_contact": "bwl@tcifreight.in<br>9315838046",
    "lat": 28.08379067,
    "lon": 76.5795745
  },
  {
    "branch_code": "BWN",
    "branch_name": "BHIWANI",
    "branch_address": "MINI BYE PASS ROAD, KIRTI NAGAR BHIWANI, BHIWANI",
    "branch_city": "BHIWANI",
    "branch_pincode": 127021,
    "branch_state": "HR",
    "branch_contact": "8010931203<br>8010931203",
    "lat": 28.79820922,
    "lon": 76.1479464
  },
  {
    "branch_code": "BWR",
    "branch_name": "BEAWAR",
    "branch_address": "SHOP NO. 130 , MASUDA ROAD , SHRI RAM NAGAR , NEAR GANPATI CHUNA FACTORY",
    "branch_city": "BEAWAR",
    "branch_pincode": 305901,
    "branch_state": "RJ",
    "branch_contact": "bwr@tcifreight.in<br>7011642559",
    "lat": 26.10350109,
    "lon": 74.32164087
  },
  {
    "branch_code": "CAEX",
    "branch_name": "BANGLADESH EXPORTS",
    "branch_address": "TRANSPORT HOUSE, 1ST FLOOR, P-4 NEW C.I.T. ROAD, NEAR TIRETTY BAZAR, 3RD FLOOR",
    "branch_city": "CALCUTTA",
    "branch_pincode": 700073,
    "branch_state": "WB",
    "branch_contact": "caex@tcifreight.in<br>9339945021<br>9073970875<br>9073970874<br><br>",
    "lat": 22.57510583,
    "lon": 88.35950026
  },
  {
    "branch_code": "CAL",
    "branch_name": "CALCUTTA",
    "branch_address": "TRANSPORT HOUSE, P-4, NEW C.I.T. ROAD, NEAR TIRETTY BAZAR, GROUND FLOOR",
    "branch_city": "KOLKATA",
    "branch_pincode": 700073,
    "branch_state": "WB",
    "branch_contact": "bkg.cal@tcifreight.in<br>dly.cal@tcifreight.in<br><br>9330668755<br>22375173<br>22375137",
    "lat": 22.57510583,
    "lon": 88.35950026
  },
  {
    "branch_code": "CAN",
    "branch_name": "CANNANORE (KANNUR)",
    "branch_address": "BLDG NO.4/708, ABC OSCAR, SOUTH BAZAR, ERUMAKUDI ROAD, NEAR FATHIMA HOSPITAL",
    "branch_city": "CANNANORE",
    "branch_pincode": 670002,
    "branch_state": "KL",
    "branch_contact": "can@tcifreight.in<br>7011063438",
    "lat": 11.84312257,
    "lon": 75.39575167
  },
  {
    "branch_code": "CBE",
    "branch_name": "COIMBATORE",
    "branch_address": "S.F. NO.162, CROSS HILLS ROAD, KAMDHENU NAGAR, BALASUNDRAM LAYOUT, AVARAMPALAYAM",
    "branch_city": "COIMBATORE",
    "branch_pincode": 641006,
    "branch_state": "TN",
    "branch_contact": "cbe@tcifreight.in<br>7011043688<br>7305829601<br>2567713<br><br><br>",
    "lat": 11.05944394,
    "lon": 76.99888995
  },
  {
    "branch_code": "CBP",
    "branch_name": "CHIKKABALLAPUR",
    "branch_address": "148/D, SHIVAKRUPA, OPP. TO LIC OF INDIA, BHARATHI NAGAR, CHIKKABALLAPUR, BANGALORE",
    "branch_city": "BANGALORE RURAL",
    "branch_pincode": 562101,
    "branch_state": "KA",
    "branch_contact": "cbp@tcifreight.in<br>cbp@tcifreight.in<br>9625311020<br>9625311020",
    "lat": 13.49624385,
    "lon": 77.73939264
  },
  {
    "branch_code": "CBR",
    "branch_name": "CHEMBUR",
    "branch_address": "10- A, PANKAJ SHOPING CENTRE, NEAR GOVANDI RAILWAY STATION (E), CHEMBUR",
    "branch_city": "MUMBAI",
    "branch_pincode": 400088,
    "branch_state": "MH",
    "branch_contact": "cbr@tcifreight.in<br>7011642558<br>7303975160",
    "lat": 19.04424137,
    "lon": 72.92086819
  },
  {
    "branch_code": "CDG",
    "branch_name": "CHANDIGARH",
    "branch_address": "TRANSPORT HOUSE, 21, TRANSPORT AREA,SECTOR-26",
    "branch_city": "CHANDIGARH",
    "branch_pincode": 160019,
    "branch_state": "CH",
    "branch_contact": "cdg@tcifreight.in<br>dly.cdg@tcifreight.in<br>bkg.cdg@tcifreight.in<br>7307570141<br>7307570140<br>2792721<br>",
    "lat": 30.73108685,
    "lon": 76.7958379
  },
  {
    "branch_code": "CDL",
    "branch_name": "CUDDALORE",
    "branch_address": "PLOT NO.52/10B, CHIDAMBARAM MAIN ROAD, KUDIKADU PANCHAYAT, SIPCOT INDUSTRIAL COMPLEX, CUDDALORE",
    "branch_city": "CUDDALORE",
    "branch_pincode": 607005,
    "branch_state": "TN",
    "branch_contact": "cdl@tcifreight.in<br>9311246456",
    "lat": 11.52020705,
    "lon": 79.33963565
  },
  {
    "branch_code": "CDPH",
    "branch_name": "CUDDAPAH",
    "branch_address": "DOOR NO.38/4367 TILAK NAGAR WARD NO.38, NEAR BHARAT PETROL KADAPA - 516001 ANDHRA PRADESH",
    "branch_city": "CUDDAPAH",
    "branch_pincode": 516001,
    "branch_state": "AP",
    "branch_contact": "cdph@tcifreight.in<br>8099929341<br>8099929341",
    "lat": 14.47616917,
    "lon": 78.82285876
  },
  {
    "branch_code": "CDPR",
    "branch_name": "CHANDRAPUR",
    "branch_address": "2, MAHAVIR POTTERIES, NAGPUR ROAD ,P.O. PADOLI",
    "branch_city": "CHANDRAPUR",
    "branch_pincode": 442401,
    "branch_state": "MH",
    "branch_contact": "cdpr@tcifreight.in<br>9021126632<br>9595787213",
    "lat": 19.98712075,
    "lon": 79.31719528
  },
  {
    "branch_code": "CGDR",
    "branch_name": "CHANGODAR (AHMD)",
    "branch_address": "343/3 SAKET ESTATE , NR. DURGA PAROTHA , CHANGODAR – BAVLA ROAD MORAIYA, AHMEDABAD",
    "branch_city": "AHMEDABAD",
    "branch_pincode": 382213,
    "branch_state": "GJ",
    "branch_contact": "cgdr@tcifreight.in<br>9625318804<br>9712901319",
    "lat": 22.96705145,
    "lon": 72.46929595
  },
  {
    "branch_code": "CHAS",
    "branch_name": "CHAS",
    "branch_address": "BY PASS ROAD - P.O. CHAS,BOKARO STEEL CITY",
    "branch_city": "CHAS",
    "branch_pincode": 827013,
    "branch_state": "JH",
    "branch_contact": "chas@tcifreight.in<br>7011642757<br>",
    "lat": 23.62872913,
    "lon": 86.18435084
  },
  {
    "branch_code": "CHIM",
    "branch_name": "CHIMBLI FATTA",
    "branch_address": "GAT NO. - 44, CHIMBLI TALUKA- KHED",
    "branch_city": "PUNE",
    "branch_pincode": 412105,
    "branch_state": "MH",
    "branch_contact": "chim@tcifreight.in<br>9625318837<br>",
    "lat": 18.65613074,
    "lon": 73.86824547
  },
  {
    "branch_code": "CHNW",
    "branch_name": "CHINDWARA",
    "branch_address": "OLD NURSINGHPUR NAKA, NAI ABADI, BEHIND LALPARK, CHINDWARA",
    "branch_city": "CHINDWARA",
    "branch_pincode": 480001,
    "branch_state": "MP",
    "branch_contact": "chnw@tcifreight.in<br>7011375026<br>000",
    "lat": 22.04479765,
    "lon": 78.97175572
  },
  {
    "branch_code": "CKMG",
    "branch_name": "CHIKMAGALORE",
    "branch_address": "NEAR MASZID, MALANDUR GENERAL STORE, TARKERI ROAD, RAMANHALLI",
    "branch_city": "CHIKMAGALORE",
    "branch_pincode": 577101,
    "branch_state": "KA",
    "branch_contact": "ckmg@tcifreight.in<br>9625318879<br>",
    "lat": 13.3249768,
    "lon": 75.77727843
  },
  {
    "branch_code": "CKN",
    "branch_name": "CHAKAN",
    "branch_address": "VILL.- SAVARDARI, POST - VASULI, TALUKA KHED, CHAKAN MIDC, OPP. SAIDEEP HOTEL",
    "branch_city": "PUNE",
    "branch_pincode": 410501,
    "branch_state": "MH",
    "branch_contact": "ckn@tcifreight.in<br>9373710484<br>8956934060",
    "lat": 18.76103477,
    "lon": 73.85325716
  },
  {
    "branch_code": "CKND",
    "branch_name": "CHIRKUNDA",
    "branch_address": "MAINTHAN ROAD, ICE FACTORY, P.O KUMARDHUBI,DIST DHANBAD",
    "branch_city": "CHIRKUNDA",
    "branch_pincode": 828203,
    "branch_state": "JH",
    "branch_contact": "cknd@tcifreight.in<br>9354917296<br>",
    "lat": 23.76104363,
    "lon": 86.77837273
  },
  {
    "branch_code": "CKPT",
    "branch_name": "CHILKALURIPET",
    "branch_address": "DOOR NO.12-206-3, VENKATACHARI NAGAR, OPP. NAGVARDHANAM HOSPITAL, CHIRALA ROAD, CHILKALURIPET",
    "branch_city": "GUNTUR",
    "branch_pincode": 522616,
    "branch_state": "AP",
    "branch_contact": "ckpt@tcifreight.in<br>7011374487",
    "lat": 16.09042687,
    "lon": 80.16685583
  },
  {
    "branch_code": "CLT",
    "branch_name": "CALICUT (KOZHIKODE)",
    "branch_address": "RC COMMERCIAL SHOP BLDG NO.568-B1, OPP. ODYSSIA FOOTWARE ,KOLATHARA CHUNGAM ROAD",
    "branch_city": "CALICUT (KOZHIKODE)",
    "branch_pincode": 673655,
    "branch_state": "KL",
    "branch_contact": "clt@tcifreight.in<br>8448393508",
    "lat": 11.2450558,
    "lon": 75.7754716
  },
  {
    "branch_code": "CMP",
    "branch_name": "CHAMPA",
    "branch_address": "MAIN ROAD",
    "branch_city": "CHAMPA",
    "branch_pincode": 495671,
    "branch_state": "CG",
    "branch_contact": "cmp@tcifreight.in<br>7011653750",
    "lat": 22.05091944,
    "lon": 82.67827051
  },
  {
    "branch_code": "CNR",
    "branch_name": "COONOOR",
    "branch_address": "56, THAMMAN BUILDING, CLUB ROAD COONOOR-, DIST. NILGIRIS",
    "branch_city": "COONOOR",
    "branch_pincode": 643101,
    "branch_state": "TN",
    "branch_contact": "cnr@tcifreight.in<br>8448393502<br>2234088",
    "lat": 11.34714135,
    "lon": 76.79727209
  },
  {
    "branch_code": "CPLN",
    "branch_name": "CHIPLUN",
    "branch_address": "HOTEL ANNAPURNA BLDG. M.I.D.C., LOTE PARASHURAM AT/PO AVASHI, TALUKA KHED, DIST RATNAGIRI",
    "branch_city": "CHIPLUN",
    "branch_pincode": 415722,
    "branch_state": "MH",
    "branch_contact": "cpln@tcifreight.in<br>7827929842<br>9318490984<br>272736",
    "lat": 17.57724435,
    "lon": 73.5233474
  },
  {
    "branch_code": "CPR",
    "branch_name": "CHAPRA",
    "branch_address": "GARKHA ROAD, GANDHI CHOWK",
    "branch_city": "CHAPRA",
    "branch_pincode": 841301,
    "branch_state": "BR",
    "branch_contact": "cpr@tcifreight.in<br>7011642772<br>292185",
    "lat": 25.78328964,
    "lon": 84.73159155
  },
  {
    "branch_code": "CRP",
    "branch_name": "CHERALAPALLY",
    "branch_address": "PLOT NO.38 & 39, MAHALAXMI NAGAR, NEAR SHANTINIKETAN GROUP OF SCHOOL ,OPPOSITE POLICE STATION, CHERLAPALLY, MALKAJGIRI, MEDCHAL, TELANGANA",
    "branch_city": "CHERALAPALLY",
    "branch_pincode": 500051,
    "branch_state": "TS",
    "branch_contact": "crp@tcifreight.in<br>crp@tcifreight.in<br>8527620040<br>8527620040",
    "lat": 18.8068094,
    "lon": 78.8869949
  },
  {
    "branch_code": "CST",
    "branch_name": "CHAKALA STREET (BBYS)",
    "branch_address": "135/137,YOGESHWAR BUILDING,KAZI SAYYED STREET,MASZID( W)",
    "branch_city": "MUMBAI",
    "branch_pincode": 400003,
    "branch_state": "MH",
    "branch_contact": "cst@tcifreight.in<br>7498887331<br>23432447<br>9699482996",
    "lat": 18.95544325,
    "lon": 72.83298332
  },
  {
    "branch_code": "CTD",
    "branch_name": "CHITRADURGA",
    "branch_address": "BUNSUR MILL, GROUND FLOOR, M.K. PALACE MAIN ROAD, CHITRADURGA",
    "branch_city": "CHITRADURGA",
    "branch_pincode": 577501,
    "branch_state": "KA",
    "branch_contact": "ctd@tcifreight.in<br>7011642541",
    "lat": 14.22703138,
    "lon": 76.40596383
  },
  {
    "branch_code": "CTG",
    "branch_name": "CHITTORGARH",
    "branch_address": "BUNDI ROAD, NEAR DELHI GATE",
    "branch_city": "CHITTORGARH",
    "branch_pincode": 312001,
    "branch_state": "RJ",
    "branch_contact": "ctg@tcifreight.in<br>7011642593<br>",
    "lat": 24.91950015,
    "lon": 74.64955236
  },
  {
    "branch_code": "CTK",
    "branch_name": "CUTTACK",
    "branch_address": "JOBRA ROAD, COLLEGE SQUARE, YUNUS PATNA, NEAR DEVI NURSING HOME",
    "branch_city": "CUTTACK",
    "branch_pincode": 753003,
    "branch_state": "OR",
    "branch_contact": "ctk@tcifreight.in<br>8448393554<br>7835047166",
    "lat": 20.46943643,
    "lon": 85.89775538
  },
  {
    "branch_code": "CTL",
    "branch_name": "CHHATRAL",
    "branch_address": "OPP. MILAN SHOPPING CENTRE, KALOL MEHSANA HIGHWAY ROAD",
    "branch_city": "CHHATRAL",
    "branch_pincode": 382729,
    "branch_state": "GJ",
    "branch_contact": "ctl@tcifreight.in<br>8586980109<br>",
    "lat": 23.29312583,
    "lon": 72.43882163
  },
  {
    "branch_code": "CTR",
    "branch_name": "CHITTOOR",
    "branch_address": "10-1-22C, GANDHI ROAD",
    "branch_city": "CHITTOOR",
    "branch_pincode": 517001,
    "branch_state": "AP",
    "branch_contact": "ctr@tcifreight.in<br>7011062593",
    "lat": 13.22445589,
    "lon": 79.08843682
  },
  {
    "branch_code": "CTW",
    "branch_name": "CLOCK TOWER (DELHI)",
    "branch_address": "4724, ROSHNARA ROAD",
    "branch_city": "DELHI",
    "branch_pincode": 110007,
    "branch_state": "DL",
    "branch_contact": "ctw@tcifreight.in<br>8178022769<br>",
    "lat": 28.67999301,
    "lon": 77.20304241
  },
  {
    "branch_code": "DAD",
    "branch_name": "DADAR (BBYN)",
    "branch_address": "UNIT NO. 7, MADHU IND. ESTATE PANDURANG BUDHAKAR MARG, OPP. CENTURY MILL, WORLI",
    "branch_city": "MUMBAI",
    "branch_pincode": 400013,
    "branch_state": "MH",
    "branch_contact": "dad@tcifreight.in<br>7835047130<br>",
    "lat": 19.00461356,
    "lon": 72.82819213
  },
  {
    "branch_code": "DAMN",
    "branch_name": "DAMAN",
    "branch_address": "SHREE GANESH BUILDING, OPP. HOTEL ROYAL GARDEN, VAPI- DAMAN ROAD",
    "branch_city": "DAMAN",
    "branch_pincode": 396210,
    "branch_state": "DD",
    "branch_contact": "damn@tcifreight.in<br>7011073434",
    "lat": 20.42634639,
    "lon": 72.84668639
  },
  {
    "branch_code": "DBD",
    "branch_name": "DHANBAD",
    "branch_address": "20/324, BANK ROAD, NEAR WATER TANK, PURANA BAZAR",
    "branch_city": "DHANBAD",
    "branch_pincode": 826001,
    "branch_state": "JH",
    "branch_contact": "dbd@tcifreight.in<br>7011043687<br>",
    "lat": 23.79817645,
    "lon": 86.43191812
  },
  {
    "branch_code": "DBG",
    "branch_name": "DARBHANGA",
    "branch_address": "NH57 BALAJI COMPLEX ALINAGAR MORE VASUDEVPUR, POST -LALBAGH WARD NO 01, THANA- MITALI VISHWAVIDYALAY",
    "branch_city": "DARBHANGA",
    "branch_pincode": 846004,
    "branch_state": "BR",
    "branch_contact": "dbg@tcifreight.in<br>7011642791<br>9693193454",
    "lat": 26.15215673,
    "lon": 85.90434678
  },
  {
    "branch_code": "DBP",
    "branch_name": "DODDABALLARPUR (BNG)",
    "branch_address": "AREHALI GUDDADHDALLI ,DODBALLAPUR , NEAR ESI- HOSPITAL BANGALORE RURAL",
    "branch_city": "BANGALORE",
    "branch_pincode": 561203,
    "branch_state": "KA",
    "branch_contact": "dbp@tcifreight.in<br>9354917293<br>",
    "lat": 13.34470235,
    "lon": 77.50933698
  },
  {
    "branch_code": "DBPL",
    "branch_name": "DEEPAK FASTENERS BHOPAL",
    "branch_address": "C/O DEEPAK FASTENERS PVT LTD PLOT NO 93/3, INDORE BHOPAL HIGHWAY VILLAGE KHOKRI",
    "branch_city": "SEHORE",
    "branch_pincode": 466001,
    "branch_state": "MP",
    "branch_contact": "dbpl@tcifreight.in<br>7835047163",
    "lat": 23.21184624,
    "lon": 77.11847491
  },
  {
    "branch_code": "DBPT",
    "branch_name": "DEBASPETE",
    "branch_address": "SURVEY NO 5/2 NH-48 SERVICE ROAD NEAR HDFC BANK DABASPET BANGALORE",
    "branch_city": "BANGALORE",
    "branch_pincode": 562111,
    "branch_state": "KA",
    "branch_contact": "dbpt@tcifreight.in<br>7011062788",
    "lat": 13.22293955,
    "lon": 77.22288921
  },
  {
    "branch_code": "DDH",
    "branch_name": "DUNDAHERA",
    "branch_address": "SHED NO.-18,SHIV ASHRAM COMPLEX, OLD DELHI PALAM ROAD, NEAR JWALA MILL DUNDAHERA",
    "branch_city": "GURUGRAM",
    "branch_pincode": 122015,
    "branch_state": "HR",
    "branch_contact": "ddh@tcifreight.in<br>7011062458",
    "lat": 28.36516978,
    "lon": 77.00598121
  },
  {
    "branch_code": "DDN",
    "branch_name": "DEHRADUN",
    "branch_address": "PLT NO.B-1 AND B-2,TRANSPORT NAGAR,SAHARAN PUR ROAD",
    "branch_city": "DEHRADUN",
    "branch_pincode": 248002,
    "branch_state": "UK",
    "branch_contact": "ddn@tcifreight.in<br>7011062973<br>9311347536",
    "lat": 29.50820204,
    "lon": 77.9565714
  },
  {
    "branch_code": "DDS",
    "branch_name": "DUDhESWAR",
    "branch_address": "G-8 VATIKA RESIDENCY, OPP. HANUMANPURA BRTS BUS STOP, DUDESHWAR",
    "branch_city": "AHMEDABAD",
    "branch_pincode": 380004,
    "branch_state": "GJ",
    "branch_contact": "dds@tcifreight.in<br>7835047193<br><br><br>",
    "lat": 23.04943716,
    "lon": 72.59021659
  },
  {
    "branch_code": "DEO",
    "branch_name": "DEOGHAR",
    "branch_address": "YOGENDRA NARAYAN SINGH ROAD, CASTOR TOWN,B",
    "branch_city": "DEOGHAR",
    "branch_pincode": 814112,
    "branch_state": "JH",
    "branch_contact": "deo@tcifreight.in<br>7011652817",
    "lat": 24.48919344,
    "lon": 86.69241125
  },
  {
    "branch_code": "DGL",
    "branch_name": "DINDIGUL",
    "branch_address": "9/1, PON SRINIVASAN NAGAR, COLLEGE HOUSE ROAD, NAGAL NAGAR",
    "branch_city": "DINDIGUL",
    "branch_pincode": 624003,
    "branch_state": "TN",
    "branch_contact": "dgl@tcifreight.in<br>7011062634<br>",
    "lat": 10.35723388,
    "lon": 77.98158902
  },
  {
    "branch_code": "DGP",
    "branch_name": "DURGAPUR",
    "branch_address": "BHIRENGI MORE, JAGANATH BHAWAN, DURGAPUR EAST,",
    "branch_city": "DURGAPUR",
    "branch_pincode": 713213,
    "branch_state": "WB",
    "branch_contact": "dgp@tcifreight.in<br>8448393488<br>9332084717",
    "lat": 23.29193003,
    "lon": 87.6405598
  },
  {
    "branch_code": "DHJ",
    "branch_name": "DAHEJ",
    "branch_address": "I.P.C.L. ROAD,BEHIND RAILWAY STATION,DAHEJ,DIST. BHARUCH",
    "branch_city": "DAHEJ",
    "branch_pincode": 392130,
    "branch_state": "GJ",
    "branch_contact": "dhj@tcifreight.in<br>9375112447<br>7818063935<br>",
    "lat": 21.7128592,
    "lon": 72.61624769
  },
  {
    "branch_code": "DHP",
    "branch_name": "DHARMAPURI",
    "branch_address": "SHIVA RICE MILL COMPOUND, DOOR NO.78/A, S.V. ROAD",
    "branch_city": "DHARMAPURI",
    "branch_pincode": 636701,
    "branch_state": "TN",
    "branch_contact": "dhp@tcifreight.in<br>7011062882<br>",
    "lat": 12.12738564,
    "lon": 78.15838018
  },
  {
    "branch_code": "DHR",
    "branch_name": "DHARUHERA",
    "branch_address": "NEAR RAO TVS SHOW ROOM, SOHNA-BHIWADI ROAD, OPP. SECTOR- 4, DHARUHERA DISTT.- REWARI",
    "branch_city": "DHARUHERA",
    "branch_pincode": 123106,
    "branch_state": "HR",
    "branch_contact": "dhr@tcifreight.in<br>8010931180",
    "lat": 28.20652217,
    "lon": 76.7944115
  },
  {
    "branch_code": "DKS",
    "branch_name": "DODDAKALLASANDRA",
    "branch_address": "NO.714, 17TH MAIN ROAD, DODDAKALLASANDRA, BOOHBCS LAYOUT, NARAYANA NAGAR, 1ST BLOCK, BANGALORE",
    "branch_city": "BANGALORE",
    "branch_pincode": 560062,
    "branch_state": "KA",
    "branch_contact": "",
    "lat": 12.8648069,
    "lon": 77.4963491
  },
  {
    "branch_code": "DLA",
    "branch_name": "DHULIA",
    "branch_address": "TRANSPORT HOUSE, BOMBAY-AGRA ROAD, AVDHAN",
    "branch_city": "DHULIA",
    "branch_pincode": 424311,
    "branch_state": "MH",
    "branch_contact": "dla@tcifreight.in<br>9325906520<br>",
    "lat": 20.83498893,
    "lon": 74.82430425
  },
  {
    "branch_code": "DLF",
    "branch_name": "DLF INDUSTRIAL AREA",
    "branch_address": "DLF INDUSTRIAL AREA, SCF 17/3, PHASE-I, INFRONT OF INTERO COMPANY, FARIDABAD, HR",
    "branch_city": "FARIDABAD",
    "branch_pincode": 121003,
    "branch_state": "HR",
    "branch_contact": "dlf@tcifreight.in<br>8595300709",
    "lat": 28.46551401,
    "lon": 77.30854512
  },
  {
    "branch_code": "DLH",
    "branch_name": "DELHI",
    "branch_address": "10, RAM BAGH, OLD ROHTAK ROAD,GROUND FLOOR DELHI.",
    "branch_city": "NEW DELHI",
    "branch_pincode": 110007,
    "branch_state": "DL",
    "branch_contact": "dlh@tcifreight.in<br>9310008019<br>",
    "lat": 28.67999301,
    "lon": 77.20304241
  },
  {
    "branch_code": "DLHR",
    "branch_name": "DELHI RAIL",
    "branch_address": "CONTAINER CORPORATION OF INDIA LTD.OKHALA CONTAINER YARD DELHI",
    "branch_city": "DELHI",
    "branch_pincode": 110020,
    "branch_state": "DL",
    "branch_contact": "dlhr@tcifreight.in<br>9350540044",
    "lat": 28.38535177,
    "lon": 77.55651683
  },
  {
    "branch_code": "DLYN",
    "branch_name": "DHULIYAN",
    "branch_address": "NEAR AAGRASEN BHAVAN, DHULIYAN- DIST. MURSHIDABAD",
    "branch_city": "DHULIYAN",
    "branch_pincode": 742202,
    "branch_state": "WB",
    "branch_contact": "dlyn@tcifreight.in<br>7011653188",
    "lat": 24.6763673,
    "lon": 87.9542754
  },
  {
    "branch_code": "DMBV",
    "branch_name": "DOMBIVILI",
    "branch_address": "OPP. W/153, MIDC II, KALYAN SHIL ROAD ,NR LALIT WEIGH BRIDGE, DOMBILIVI EAST",
    "branch_city": "MUMBAI",
    "branch_pincode": 421204,
    "branch_state": "MH",
    "branch_contact": "dmbv@tcifreight.in<br>7498792631<br>",
    "lat": 19.17446997,
    "lon": 73.09247467
  },
  {
    "branch_code": "DMT",
    "branch_name": "DHAMTARI",
    "branch_address": "SIHAVA ROAD, NEAR RATHI GODOWN",
    "branch_city": "DHAMTARI",
    "branch_pincode": 493773,
    "branch_state": "CG",
    "branch_contact": "dmt@tcifreight.in<br>7879839514<br>8851578678",
    "lat": 20.70467589,
    "lon": 81.55420326
  },
  {
    "branch_code": "DNK",
    "branch_name": "DANKUNI",
    "branch_address": "OPP. TOWNSHIP GATE DELHI ROAD, DANKUNI",
    "branch_city": "HOOGHLY",
    "branch_pincode": 712310,
    "branch_state": "WB",
    "branch_contact": "dnk@tcifreight.in<br>8287972832",
    "lat": 22.70080815,
    "lon": 88.2961637
  },
  {
    "branch_code": "DNR",
    "branch_name": "DAHANU ROAD",
    "branch_address": "6 VIRAL APPARTMENT , NEAR 3RD PETROL PUMP , CHATRI COMPOUND , DAHANU ROAD EAST",
    "branch_city": "PALGHAR",
    "branch_pincode": 401602,
    "branch_state": "MH",
    "branch_contact": "dnr@tcifreight.in<br>8368389434",
    "lat": 19.98515131,
    "lon": 72.77832061
  },
  {
    "branch_code": "DOS",
    "branch_name": "DEHRI-ON-SONE",
    "branch_address": "WARD NO 24, ZAKHI BIGHA, NEAR SHABAD DHARAMKANTA,DEHRI ON SONE, DIST. ROHTAS",
    "branch_city": "DEHRI-ON-SONE",
    "branch_pincode": 821307,
    "branch_state": "BR",
    "branch_contact": "dos@tcifreight.in<br>8287972806<br><br><br><br><br><br><br><br>",
    "lat": 24.9017893,
    "lon": 84.18497763
  },
  {
    "branch_code": "DPD",
    "branch_name": "DAPODA",
    "branch_address": "A-11 , MAHAVIR COMPLEX ANJUR MANKOLI ROAD , NEAR MANAS PETROL PUMP INFRONT OF SIDHINATH COMPLEX, VAL VILLAGE ,BHIWANDI , DISTT THANE",
    "branch_city": "BHIWANDI",
    "branch_pincode": 421302,
    "branch_state": "MH",
    "branch_contact": "dpd@tcifreight.in<br>8368389851<br>",
    "lat": 19.29693409,
    "lon": 73.05295856
  },
  {
    "branch_code": "DPR",
    "branch_name": "DHAMPUR",
    "branch_address": "NOORPUR ROAD, NEAR RONAK HOSPITAL BACK SIDE, JAITRA, DHAMPUR-DIST. BIJNOR",
    "branch_city": "DHAMPUR",
    "branch_pincode": 246761,
    "branch_state": "UP",
    "branch_contact": "dpr@tcifreight.in<br>8010931529",
    "lat": 29.28744661,
    "lon": 78.50283292
  },
  {
    "branch_code": "DRK",
    "branch_name": "DWARKA",
    "branch_address": "RZ-207, NAND VIHAR CALONY, KAKROLA DWARIKA, NEW DELHI",
    "branch_city": "NEW DELHI",
    "branch_pincode": 110078,
    "branch_state": "DL",
    "branch_contact": "drk@tcifreight.in<br>9625318894",
    "lat": 28.60363909,
    "lon": 77.03881569
  },
  {
    "branch_code": "DURG",
    "branch_name": "DURG",
    "branch_address": "G. E. ROAD, GANJ PARA, NEAR PHOOL GAON NAKA",
    "branch_city": "DURG",
    "branch_pincode": 491001,
    "branch_state": "CG",
    "branch_contact": "durg@tcifreight.in<br>7879839515<br>7011653758<br>",
    "lat": 21.17174939,
    "lon": 81.28936781
  },
  {
    "branch_code": "DVG",
    "branch_name": "DAVANGERE",
    "branch_address": "D. NO.109/14,RMC LINK ROAD,NEAR PC LAYOUT MAHAVEER KALYAN, MANTPPA",
    "branch_city": "DAVANGERE",
    "branch_pincode": 577001,
    "branch_state": "KA",
    "branch_contact": "dvg@tcifreight.in<br>7011544301<br>",
    "lat": 14.47010811,
    "lon": 75.92344984
  },
  {
    "branch_code": "DWR",
    "branch_name": "DHARWAR",
    "branch_address": "ROAD NO.3, BELUR INDUSTRIAL AREA",
    "branch_city": "DHARWAR",
    "branch_pincode": 580011,
    "branch_state": "KA",
    "branch_contact": "dwr@tcifreight.in<br>7011544388<br>",
    "lat": 15.5146525,
    "lon": 74.91734663
  },
  {
    "branch_code": "DWS",
    "branch_name": "DEWAS",
    "branch_address": "STATION ROAD",
    "branch_city": "DEWAS",
    "branch_pincode": 455001,
    "branch_state": "MP",
    "branch_contact": "dws@tcifreight.in<br>7835047178",
    "lat": 22.95494862,
    "lon": 76.07353099
  },
  {
    "branch_code": "EKM",
    "branch_name": "ERNAKULAM",
    "branch_address": "BUILDESINGS ARCUS, DOOR NO 31/800 C, 46/383G, CHITTOR ROAD VADUTHALA",
    "branch_city": "KOCHI",
    "branch_pincode": 682023,
    "branch_state": "KL",
    "branch_contact": "ekm@tcifreight.in<br>7011064036<br>",
    "lat": 10.01390501,
    "lon": 76.27879452
  },
  {
    "branch_code": "ERD",
    "branch_name": "ERODE",
    "branch_address": "PLOT NO.13, 45/4 –A SENGOTIAIAN KAMDHENU MAHAL BACK SIDE, VAIRAPALAYAM ROAD, ERODE",
    "branch_city": "ERODE",
    "branch_pincode": 638003,
    "branch_state": "TN",
    "branch_contact": "erd@tcifreight.in<br>7305829604<br>7011062466",
    "lat": 11.34824984,
    "lon": 77.72973543
  },
  {
    "branch_code": "EST",
    "branch_name": "EDAYAR STREET (CBE)",
    "branch_address": "93, EDAYAR STREET",
    "branch_city": "COIMBATORE",
    "branch_pincode": 641001,
    "branch_state": "TN",
    "branch_contact": "est@tcifreight.in<br>7011063117<br>7305829605",
    "lat": 10.98916813,
    "lon": 76.97511046
  },
  {
    "branch_code": "FBD",
    "branch_name": "FARIDABAD",
    "branch_address": "17-6, MATHURA ROAD, NEAR CROWN PLAZA",
    "branch_city": "FARIDABAD",
    "branch_pincode": 121007,
    "branch_state": "HR",
    "branch_contact": "fbd@tciffreight.in<br>dly.fbd@tcifreight.in<br>7011062625<br>8368390312<br>",
    "lat": 28.39051978,
    "lon": 77.32309358
  },
  {
    "branch_code": "FBDB",
    "branch_name": "FARIDABAD BOOKING",
    "branch_address": "17-6, MATHURA ROAD, NEAR CROWN PLAZA, FARIDABAD",
    "branch_city": "FARIDABAD",
    "branch_pincode": 121007,
    "branch_state": "HR",
    "branch_contact": "fbdb@tcifreight.in<br>7835047119",
    "lat": 28.39051978,
    "lon": 77.32309358
  },
  {
    "branch_code": "FCP",
    "branch_name": "FOCAL POINT",
    "branch_address": "C-9, PHASE-II, FOCAL POINT, LUDHIANA, PUNJAB",
    "branch_city": "LUDHIANA",
    "branch_pincode": 141010,
    "branch_state": "PB",
    "branch_contact": "fcp@tcifreight.in<br>9315838734",
    "lat": 30.89192971,
    "lon": 75.91006307
  },
  {
    "branch_code": "FSG",
    "branch_name": "FURSUNGI",
    "branch_address": "SR. NO. 144, GANESH NAGAR, NEAR MHSKOBA MANDIR, PUNE SASWAD ROAD, FURSUNGI",
    "branch_city": "PUNE",
    "branch_pincode": 412308,
    "branch_state": "MH",
    "branch_contact": "fsg@tcifreight.in<br>9021133583<br>7011642562",
    "lat": 18.47144018,
    "lon": 73.96901567
  },
  {
    "branch_code": "FZB",
    "branch_name": "FAIZABAD",
    "branch_address": "PLOT NO.81 & 82, TRANSPORT NAGAR, NEAR RTO OFFICE FAIZABAD",
    "branch_city": "AYODHYA",
    "branch_pincode": 224001,
    "branch_state": "UP",
    "branch_contact": "fzb@tcifreight.in<br>7827949578<br>",
    "lat": 26.78551681,
    "lon": 82.10396266
  },
  {
    "branch_code": "FZD",
    "branch_name": "FIROZABAD",
    "branch_address": "AGRA ROAD",
    "branch_city": "FIROZABAD",
    "branch_pincode": 283203,
    "branch_state": "UP",
    "branch_contact": "fzd@tcifreight.in<br>8010929341<br>8076299288<br><br>",
    "lat": 27.14928134,
    "lon": 78.40505613
  },
  {
    "branch_code": "FZN",
    "branch_name": "FERTILIZERNAGAR (BRD)",
    "branch_address": "R.S. PATEL ESTATE, RANOLI, IPCL ROAD, NEAR ARC GODOWN RANOLI",
    "branch_city": "VADODARA",
    "branch_pincode": 391350,
    "branch_state": "GJ",
    "branch_contact": "fzn@tcifreight.in<br>7011642678<br>9582997783",
    "lat": 22.42724835,
    "lon": 73.11891665
  },
  {
    "branch_code": "GAN",
    "branch_name": "GANDHINAGAR (DELHI)",
    "branch_address": "9/1072 GROUND FLOOR GANDHINGAR ,NEAR PARASHAR SWEETS,OPP GANDHINAGAR THANA ,NEW POST OFFICE GALI GANDHINAGAR",
    "branch_city": "DELHI",
    "branch_pincode": 110031,
    "branch_state": "DL",
    "branch_contact": "gan@tcifreight.in<br>8368389471",
    "lat": 28.65094568,
    "lon": 77.27289588
  },
  {
    "branch_code": "GAYA",
    "branch_name": "GAYA",
    "branch_address": "NEAR MORIYA GHAT MASJID, BACK SIDE OF FARHAN BANGLES BABA GALI, MORIYA GHAT",
    "branch_city": "GAYA",
    "branch_pincode": 823001,
    "branch_state": "BR",
    "branch_contact": "gaya@tcifreight.in<br>7011652792",
    "lat": 24.79355911,
    "lon": 84.99716982
  },
  {
    "branch_code": "GBA",
    "branch_name": "GULBARGA",
    "branch_address": "PLOT NO 12, SHOP NO 3 COTTON MARKET, NEHARU GUNJ",
    "branch_city": "GULBARGA",
    "branch_pincode": 585104,
    "branch_state": "KA",
    "branch_contact": "gba@tcifreight.in<br>7011375439",
    "lat": 17.35158568,
    "lon": 76.84889136
  },
  {
    "branch_code": "GDA",
    "branch_name": "GONDIA",
    "branch_address": "D.T. COMPANY, NEAR RAMDEORA MANDIR RAIL TOLY",
    "branch_city": "GONDIA",
    "branch_pincode": 441614,
    "branch_state": "MH",
    "branch_contact": "gda@tcifreight.in<br>000<br>7835047132",
    "lat": 21.47548637,
    "lon": 80.12814008
  },
  {
    "branch_code": "GDG",
    "branch_name": "GADAG",
    "branch_address": "L.L. COMPOUND, FIELD MARSHALL GEN. K.M. CARIAPPA CIRCLE, LAKHAMSEY LADHA ROAD",
    "branch_city": "GADAG",
    "branch_pincode": 582101,
    "branch_state": "KA",
    "branch_contact": "gdg@tcifreight.in<br>7011544313<br>",
    "lat": 15.42842608,
    "lon": 75.63014119
  },
  {
    "branch_code": "GDM",
    "branch_name": "GANDHIDHAM",
    "branch_address": "66 & 67, TRANSPORT NAGAR, TANKER ASS. BLDG. ,OPP. HOTEL GOKUL",
    "branch_city": "GANDHIDHAM",
    "branch_pincode": 370201,
    "branch_state": "GJ",
    "branch_contact": "gdm@tcifreight.in<br>9328198788<br>8585918639<br>",
    "lat": 23.07054859,
    "lon": 70.12885457
  },
  {
    "branch_code": "GDN",
    "branch_name": "GANDHINAGAR",
    "branch_address": "PLOT NO. 101/1/9, SECTOR-28, ENG. STATE, NEAR GH 7 CIRCLE GANDHINAGAR",
    "branch_city": "GANDHINAGAR",
    "branch_pincode": 382028,
    "branch_state": "GJ",
    "branch_contact": "gdn@tcifreight.in<br>8448393465",
    "lat": 23.2479962,
    "lon": 72.6593429
  },
  {
    "branch_code": "GDR",
    "branch_name": "GUDUR",
    "branch_address": "11/ 165, DARGA STREET, GUDUR, DIST. NELLORE",
    "branch_city": "GUDUR",
    "branch_pincode": 524101,
    "branch_state": "AP",
    "branch_contact": "gdr@tcifreight.in<br>7011073553",
    "lat": 14.15602445,
    "lon": 79.85388881
  },
  {
    "branch_code": "GDRA",
    "branch_name": "GODHRA",
    "branch_address": "BHURAV AREA, NEAR S.T WORKSHOP, MUNICIPAL HOUSE NO 1/293/EA GODHRA DISTT. PANCHMAHAL",
    "branch_city": "GODHRA",
    "branch_pincode": 389001,
    "branch_state": "GJ",
    "branch_contact": "gdra@tcifreight.in<br>9374270632<br>7011375381",
    "lat": 22.7767435,
    "lon": 73.62139156
  },
  {
    "branch_code": "GDWS",
    "branch_name": "GOINDWAL SAHIB",
    "branch_address": "SHOP NO.13, TANKI WALI GALI, TEHSIL- KHADUR SAHIB, DIST- TARN TARAN, PUNJAB",
    "branch_city": "TARN TARAN",
    "branch_pincode": 143422,
    "branch_state": "PB",
    "branch_contact": "gdws@tcifreight.in<br>7428312674",
    "lat": 31.35968877,
    "lon": 75.1337642
  },
  {
    "branch_code": "GGE",
    "branch_name": "GOREGAON EAST",
    "branch_address": "GALA NO 422, NEW ASHOK NAGAR, CAMA ESTATE, WESTORN EXPRESS HIGHWAY, GOREGAON EAST",
    "branch_city": "MUMBAI",
    "branch_pincode": 400063,
    "branch_state": "MH",
    "branch_contact": "gge@tcifreight.in<br>7011642526",
    "lat": 19.16889845,
    "lon": 72.85896637
  },
  {
    "branch_code": "GGN",
    "branch_name": "Gurugram",
    "branch_address": "BHAWANI ENCLAVE BASAI ROAD, NEAR RISHI DHARAMKATA",
    "branch_city": "GURUGRAM",
    "branch_pincode": 122001,
    "branch_state": "HR",
    "branch_contact": "ggn@tcifreight.in<br>9555266322<br>7011073439<br>",
    "lat": 28.46885161,
    "lon": 77.03762782
  },
  {
    "branch_code": "GIN",
    "branch_name": "GUINDY",
    "branch_address": "NO.-4/70, LABOUR COLONY, 4TH STREET, NEAR LION CLUB SCHOOL, INDL ESTATE, GUINDY",
    "branch_city": "CHENNAI",
    "branch_pincode": 600032,
    "branch_state": "TN",
    "branch_contact": "gin@tcifreight.in<br>9383545021",
    "lat": 13.6776625,
    "lon": 80.1473765
  },
  {
    "branch_code": "GJL",
    "branch_name": "GAJRAULA",
    "branch_address": "OPP. LIC, DELHI MORADABAD ROAD, GAJRAULA, DISTT.- JJOTI BAPHULE NAGAR",
    "branch_city": "GAJRAULA",
    "branch_pincode": 244235,
    "branch_state": "UP",
    "branch_contact": "gjl@tcifreight.in<br>8368388802",
    "lat": 28.86695548,
    "lon": 78.22327708
  },
  {
    "branch_code": "GKP",
    "branch_name": "GORAKHPUR",
    "branch_address": "PLOT NO-B 8/15, SECTOR - 22, GIDA, GORAKHPUR",
    "branch_city": "GORAKHPUR",
    "branch_pincode": 273209,
    "branch_state": "UP",
    "branch_contact": "gkp@tcifreight.in<br>8929158311<br>7835047146",
    "lat": 26.680052,
    "lon": 83.1287325
  },
  {
    "branch_code": "GKS",
    "branch_name": "GOKUL SHIRGAON",
    "branch_address": "PLOT NO. R-4, MIDC GOKUL SHIRGAON, GOKUL CHOWK, MAIL ROAD, TALUKA KARVEER, KOLHAPUR",
    "branch_city": "KOLHAPUR",
    "branch_pincode": 416234,
    "branch_state": "MH",
    "branch_contact": "",
    "lat": 16.64123844,
    "lon": 74.27249546
  },
  {
    "branch_code": "GLPR",
    "branch_name": "GOALPARA",
    "branch_address": "VILLAGE- AZAD NAGAR, W/NO-19, PO- BALADMARI, GOALPARA",
    "branch_city": "GOALPARA",
    "branch_pincode": 783121,
    "branch_state": "AS",
    "branch_contact": "glpr@tcifreight.in<br>7703811218",
    "lat": 26.15539683,
    "lon": 90.61954657
  },
  {
    "branch_code": "GLR",
    "branch_name": "GILL ROAD (LDH)",
    "branch_address": "SHOP NO. 553/ A/ 1A, GHAKHI SHAM MILL, GILL ROAD",
    "branch_city": "LUDHIANA",
    "branch_pincode": 141003,
    "branch_state": "PB",
    "branch_contact": "glr@tcifreight.in<br>9318490970<br>",
    "lat": 30.87771804,
    "lon": 75.86548981
  },
  {
    "branch_code": "GMD",
    "branch_name": "GUMMIDIPOONDI",
    "branch_address": "G.N.T. ROAD, VERKADU VILLAGE, NEAR VIJAYAWADA HOTEL,GUMMIDIPOONDI, DISTT. THIRUVALLUR",
    "branch_city": "CHENNAI",
    "branch_pincode": 601201,
    "branch_state": "TN",
    "branch_contact": "gmd@tcifreight.in<br>8448393505<br>7604863817",
    "lat": 13.42958471,
    "lon": 80.11681891
  },
  {
    "branch_code": "GND",
    "branch_name": "GONDA",
    "branch_address": "SURAJ HOTEL ROAD, OM COMPLEX, GOSWAMI PURAM, THANA- KOTBALI NAGAR, JANKI NAGAR, GONDA",
    "branch_city": "GONDA",
    "branch_pincode": 271001,
    "branch_state": "UP",
    "branch_contact": "gnd@tcifreight.in<br>9313580893",
    "lat": 27.13759137,
    "lon": 81.963156
  },
  {
    "branch_code": "GNKP",
    "branch_name": "GONIKOPPA",
    "branch_address": "ATHUR VILLAGE, POLLY BETTA ROAD, GONIKOPPA, KODAGU DISTRICT",
    "branch_city": "KODAGU",
    "branch_pincode": 571213,
    "branch_state": "KA",
    "branch_contact": "gnkp@tcifreight.in<br>9625318883",
    "lat": 12.1846593,
    "lon": 75.9236819
  },
  {
    "branch_code": "GON",
    "branch_name": "GONDAL",
    "branch_address": "SHOP NO-3, PLOT NO-159, PAIKI SURVEY- 686/3686/4, 689 & 690/3, PAIKI SIDHARTH NAGAR, ASHAPURA CHOKDI, GONDAL",
    "branch_city": "RAJKOT",
    "branch_pincode": 360311,
    "branch_state": "GJ",
    "branch_contact": "gon@tcifreight.in<br>9625318817",
    "lat": 21.97925363,
    "lon": 70.78559599
  },
  {
    "branch_code": "GPT",
    "branch_name": "GANAPATHY",
    "branch_address": "73, G.R. TAGOOR STREET, GANAPATHY",
    "branch_city": "COIMBATORE",
    "branch_pincode": 641006,
    "branch_state": "TN",
    "branch_contact": "gpt@tcifreight.in<br>7305829608",
    "lat": 11.05944394,
    "lon": 76.99888995
  },
  {
    "branch_code": "GRD",
    "branch_name": "GIRIDIH",
    "branch_address": "OPP. JAI MICA COMPANY, BAJRANG CHOWK, MAKATPUR",
    "branch_city": "GIRIDIH",
    "branch_pincode": 815301,
    "branch_state": "JH",
    "branch_contact": "grd@tcifreight.in<br>7011652840<br><br>",
    "lat": 24.18460413,
    "lon": 86.30313862
  },
  {
    "branch_code": "GRND",
    "branch_name": "GREATER NOIDA",
    "branch_address": "DHANIRAM MARKET, TILAPTA CHOWK, NEAR 130 METER ROAD, GREATER NOIDA, UP",
    "branch_city": "NOIDA",
    "branch_pincode": 201306,
    "branch_state": "UP",
    "branch_contact": "grnd@tcifreight.in<br>7011062761",
    "lat": 28.50905983,
    "lon": 77.47724046
  },
  {
    "branch_code": "GSR",
    "branch_name": "GHUSURI",
    "branch_address": "147/ A/ 1, GIRISH GHOSH ROAD, NEAR BARA HANUMAN MANDIR, BAJRANG BALI MARKET, BELURMATH, HOWRAH",
    "branch_city": "KOLKATA",
    "branch_pincode": 711202,
    "branch_state": "WB",
    "branch_contact": "gsr@tcifreight.in<br>7011653172",
    "lat": 22.63227396,
    "lon": 88.35221799
  },
  {
    "branch_code": "GTK",
    "branch_name": "GHATKOPER",
    "branch_address": "ROOM NO-5 , JOHN GOMES CHAWL NO 1 ,SITUATED AT LINK ROAD ,NEAR JAI BHARAT SOCIETY , NINTY FEET ROAD, SAKINAKA",
    "branch_city": "MUMBAI",
    "branch_pincode": 400072,
    "branch_state": "MH",
    "branch_contact": "gtk@tcifreight.in<br>9625318844",
    "lat": 19.10634871,
    "lon": 72.89145942
  },
  {
    "branch_code": "GTR",
    "branch_name": "GUNTUR",
    "branch_address": "PLOT NO. 30, NEAR NEW POWER HOUSE, PONNUR ROAD",
    "branch_city": "GUNTUR",
    "branch_pincode": 522004,
    "branch_state": "AP",
    "branch_contact": "gtr@tcifreight.in<br>8099929350<br>7011374489",
    "lat": 16.29428432,
    "lon": 80.42846104
  },
  {
    "branch_code": "GUN",
    "branch_name": "GUNA",
    "branch_address": "A. B. ROAD, NEAR MARUTI SHOWROOM, AARON BYPASS HOUSE NO. 521",
    "branch_city": "GUNA",
    "branch_pincode": 473001,
    "branch_state": "MP",
    "branch_contact": "gun@tcifreight.in<br>7011642609",
    "lat": 24.68497679,
    "lon": 77.34411388
  },
  {
    "branch_code": "GWK",
    "branch_name": "GAJUWAKA (VSP)",
    "branch_address": "D.NO. 9-5-6, JOGAVANIPALEM HIGH SCHOOL ROAD, NEW GAJUWAKA",
    "branch_city": "VISAKHAPATNAM",
    "branch_pincode": 530026,
    "branch_state": "AP",
    "branch_contact": "gwk@tcifreight.in<br>7011063946",
    "lat": 17.68632752,
    "lon": 83.21036208
  },
  {
    "branch_code": "GWL",
    "branch_name": "GWALIOR",
    "branch_address": "A-18/400, NEAR WATER TANK, PARKING NO.03, T.P. NAGAR",
    "branch_city": "GWALIOR",
    "branch_pincode": 474010,
    "branch_state": "MP",
    "branch_contact": "gwl@tcifreight.in<br>8448393522<br>",
    "lat": 26.2500472,
    "lon": 78.10853095
  },
  {
    "branch_code": "GWT",
    "branch_name": "GUWAHATI",
    "branch_address": "K.P. PATTA NO. 270,163,69,153,190 (O)254,472,216,440,539,538 NEAR HOTEL BHARGAV GRAND SITUATED AT BETKUCHI, NATIONAL HIGHWAY 37, GUWAHATI",
    "branch_city": "GUWAHATI",
    "branch_pincode": 781035,
    "branch_state": "AS",
    "branch_contact": "gwt@tcifreight.in<br>7011653205<br>9354917297<br>8448393552",
    "lat": 26.110213,
    "lon": 91.70812813
  },
  {
    "branch_code": "GZB",
    "branch_name": "GHAZIABAD",
    "branch_address": "KHASRA NO-1025, OM DHARAM KANTA, NEAR RAJNAGAR XTENSION CUT, DELHI MEERUT ROAD",
    "branch_city": "GHAZIABAD",
    "branch_pincode": 201001,
    "branch_state": "UP",
    "branch_contact": "7011062752<br>9313585033<br>8287972781<br>",
    "lat": 28.65992026,
    "lon": 77.42353482
  },
  {
    "branch_code": "HAR",
    "branch_name": "HAROHALLI",
    "branch_address": "SHOP NO 1, SURVEY 599/5, KHATA NO 32-65, HAROHALLI TOWN , KANAKPURA, HAROHALLI INDUSTRIAL AREA, RAMANAGARA",
    "branch_city": "BANGALORE RURAL",
    "branch_pincode": 562112,
    "branch_state": "KA",
    "branch_contact": "har@tcifreight.in<br>7827942715",
    "lat": 12.704348,
    "lon": 77.47767107
  },
  {
    "branch_code": "HBL",
    "branch_name": "HUBLI",
    "branch_address": "PLOT NO. 150, 11TH CROSS, 2ND GATE, INDUSTRIAL ESTATE, GOKUL ROAD, NEAR KEB OFFICE",
    "branch_city": "HUBLI",
    "branch_pincode": 580030,
    "branch_state": "KA",
    "branch_contact": "bkg.hbl@tcifreight.in<br>dly.hbl@tcifreight.in<br>9343357380<br>4265252<br>2253773",
    "lat": 15.34972356,
    "lon": 75.10795609
  },
  {
    "branch_code": "HDPS",
    "branch_name": "HADAPSAR",
    "branch_address": "SR NO.108/109, ANAND NAGAR, NR. MAJID GARAGE, MIDC ROAD, PUNE CITY ( M.CORP)",
    "branch_city": "PUNE",
    "branch_pincode": 411013,
    "branch_state": "MH",
    "branch_contact": "",
    "lat": 18.51250277,
    "lon": 73.91967358
  },
  {
    "branch_code": "HDW",
    "branch_name": "HALDWANI",
    "branch_address": "TCI HOUSE, PLOT NO. A/9 B, TRANSPORT NAGAR RAMPUR ROAD, NEAR POLICE CHOUKI, HALDWANI -DIST- NAINITAL",
    "branch_city": "HALDWANI",
    "branch_pincode": 263139,
    "branch_state": "UK",
    "branch_contact": "hdw@tcifreight.in<br>7011062974<br>234084<br>9015522393",
    "lat": 29.20958023,
    "lon": 79.52996004
  },
  {
    "branch_code": "HDWR",
    "branch_name": "HARIDWAR",
    "branch_address": "TRANSPORT HOUSE, OPP.KHOOBSURAT PALACE, KHANNA NGR., HARIDWAR RD, POST JWALAPUR",
    "branch_city": "HARIDWAR",
    "branch_pincode": 249407,
    "branch_state": "UK",
    "branch_contact": "hdwr@tcifreight.in<br>9027183739<br>7011062982<br>7835047107",
    "lat": 29.93025861,
    "lon": 78.10572726
  },
  {
    "branch_code": "HGT",
    "branch_name": "HINGANGHAT",
    "branch_address": "KOCHAR WARD, STATION ROAD, NEAR LIC OFFICE",
    "branch_city": "HINGANGHAT",
    "branch_pincode": 442301,
    "branch_state": "MH",
    "branch_contact": "hgt@tcifreight.in<br>7011063907",
    "lat": 20.54201823,
    "lon": 78.84268287
  },
  {
    "branch_code": "HJP",
    "branch_name": "HAJIPUR",
    "branch_address": "NEAR KARBLA JADUA, AT-CHIKNOTA ,PO-HAJIPUR,DIST-VAISHALI",
    "branch_city": "PATNA",
    "branch_pincode": 844101,
    "branch_state": "BR",
    "branch_contact": "hjp@tcifreight.in<br>7011652756<br>266518",
    "lat": 24.86272791,
    "lon": 84.71709299
  },
  {
    "branch_code": "HKD",
    "branch_name": "HIRAKUD",
    "branch_address": "PLOT NO. 1154 KHATA NO. 100 NH-6, SAHU PARKING OPPOSITE TRUCK UNION ASSOCIATION OFFICE BARAIPALI",
    "branch_city": "SAMBALPUR",
    "branch_pincode": 768006,
    "branch_state": "OR",
    "branch_contact": "hkd@tcifreight.in<br>9354917295<br><br>",
    "lat": 21.48625708,
    "lon": 83.9750566
  },
  {
    "branch_code": "HKT",
    "branch_name": "HOSKOTE",
    "branch_address": "CHOKKAHALLI, CHINTAMANI MAIN ROAD, HOSKOTE INDUSTRIAL AREA, HOSKOTE TALUK",
    "branch_city": "BANGALORE",
    "branch_pincode": 562114,
    "branch_state": "KA",
    "branch_contact": "hkt@tcifreight.in<br>9342820218<br><br><br>",
    "lat": 13.0742015,
    "lon": 77.84608461
  },
  {
    "branch_code": "HLD",
    "branch_name": "HALDIA",
    "branch_address": "SAROJINI BHAVAN, KHANJANCHAK, P.S. - DURGACHAK, DISTT.- EAST MIDNAPUR",
    "branch_city": "HALDIA",
    "branch_pincode": 721602,
    "branch_state": "WB",
    "branch_contact": "hld@tcifreight.in<br>9625318851<br>8448393555",
    "lat": 22.08127645,
    "lon": 88.13990403
  },
  {
    "branch_code": "HLL",
    "branch_name": "HALOL",
    "branch_address": "NEAR BHARAT PETROL PUMP,OPP. SARA HOTEL HALOL GODHRA BY PASS HIGHWAY ROAD",
    "branch_city": "HALOL",
    "branch_pincode": 389350,
    "branch_state": "GJ",
    "branch_contact": "hll@tcifreight.in<br>7011642683<br>",
    "lat": 22.51073821,
    "lon": 73.45730974
  },
  {
    "branch_code": "HMNR",
    "branch_name": "HIMATNAGAR",
    "branch_address": "PALACE ROAD, OPP. COLLECTOR OFFICE, NEAR BPO,HIMATNAGAR-, DIST. SABARKANTHA",
    "branch_city": "HIMMATNAGAR",
    "branch_pincode": 383001,
    "branch_state": "GJ",
    "branch_contact": "hmnr@tcifreight.in<br>7011375461",
    "lat": 23.59474991,
    "lon": 72.96805959
  },
  {
    "branch_code": "HNG",
    "branch_name": "HINGNA (NAGPUR)",
    "branch_address": "PLOT NO. U-1, MIDC HINGNA NAGPUR (URBAN), NAGPUR MUNICIPAL CORP.",
    "branch_city": "NAGPUR",
    "branch_pincode": 440016,
    "branch_state": "MH",
    "branch_contact": "hng@tcifreight.in<br>9311589883",
    "lat": 21.1268708,
    "lon": 79.0065145
  },
  {
    "branch_code": "HNGR",
    "branch_name": "HANUMANGARH",
    "branch_address": "NEW DHAN MANDI, SHOP NO. 58 HANUMANGARH JUNCTION",
    "branch_city": "HANUMANGARH",
    "branch_pincode": 335512,
    "branch_state": "RJ",
    "branch_contact": "hngr@tcifreight.in<br>7011062560<br>",
    "lat": 29.61450448,
    "lon": 74.29828603
  },
  {
    "branch_code": "HPR",
    "branch_name": "HAPUR",
    "branch_address": "MAIN DELHI ROAD ACHHEJA DISSTRIC HAPUR UTTAR PRADESH",
    "branch_city": "HAPUR",
    "branch_pincode": 245101,
    "branch_state": "UP",
    "branch_contact": "hpr@tcifreight.in<br>7011062664<br><br>",
    "lat": 28.71912462,
    "lon": 77.74745546
  },
  {
    "branch_code": "HPT",
    "branch_name": "HOSPET",
    "branch_address": "OPP. TO GATI TRANSPORT, NEAR H. P. PETROL PUMP, HARIHAR ROAD",
    "branch_city": "HOSPET",
    "branch_pincode": 583203,
    "branch_state": "KA",
    "branch_contact": "hpt@tcifreight.in<br>7011544346",
    "lat": 15.26592714,
    "lon": 76.36939174
  },
  {
    "branch_code": "HSN",
    "branch_name": "HASSAN",
    "branch_address": "APMC YARD,5TH CROSS, B.M. ROAD, NEAR BHARATH GAS GODOWN",
    "branch_city": "HASSAN",
    "branch_pincode": 573201,
    "branch_state": "KA",
    "branch_contact": "hsn@tcifreight.in<br>7011642577<br>257496",
    "lat": 13.0093127,
    "lon": 76.10835111
  },
  {
    "branch_code": "HSP",
    "branch_name": "HOSHIARPUR",
    "branch_address": "OPP INTERNATIONAL TRACTORS LTD ( DESPATCH GATE ) , VILLAGE CHAK GUJRAN ,JALANDHAR ROAD HOSHIARPUR",
    "branch_city": "HOSHIARPUR",
    "branch_pincode": 146001,
    "branch_state": "PB",
    "branch_contact": "hsp@tcifreight.in<br>9318490974<br>9569924632<br>",
    "lat": 31.52859548,
    "lon": 75.90506473
  },
  {
    "branch_code": "HSR",
    "branch_name": "HOSUR",
    "branch_address": "PLOT NO 3-202, JALAGANDESWARAR NAGAR, OPPOSITE TO OLD BUS STAND, SEETHARAM MEDU , KRISHANAGIRI MAIN ROAD, TALUK-HOSUR",
    "branch_city": "HOSUR",
    "branch_pincode": 635109,
    "branch_state": "TN",
    "branch_contact": "hsr@tcifreight.in<br>9344476843<br>",
    "lat": 12.73258405,
    "lon": 77.85011315
  },
  {
    "branch_code": "HSSR",
    "branch_name": "HISSAR",
    "branch_address": "MOHANA MANDI",
    "branch_city": "HISSAR",
    "branch_pincode": 125001,
    "branch_state": "HR",
    "branch_contact": "hssr@tcifreight.in<br>7835047120",
    "lat": 29.15146644,
    "lon": 75.725064
  },
  {
    "branch_code": "HTDA",
    "branch_name": "HITAUDA",
    "branch_address": "ASHOK PATH, HITAUDA MANDIR, HITAUDA, NEPAL-90",
    "branch_city": "HITAUDA",
    "branch_pincode": 666666,
    "branch_state": "NP",
    "branch_contact": "9851044359",
    "lat": 27.4295853,
    "lon": 85.0326586
  },
  {
    "branch_code": "HUP",
    "branch_name": "HINDUPUR",
    "branch_address": "NEAR TOWN 2 POLICE STATION, AUTO NAGAR ROAD, OPPOSITE JOHN DEERE TRACTOR SHOWROOM",
    "branch_city": "HINDUPUR",
    "branch_pincode": 515201,
    "branch_state": "AP",
    "branch_contact": "hup@tcifreight.in<br>8099929343",
    "lat": 13.83067543,
    "lon": 77.49455067
  },
  {
    "branch_code": "HWDI",
    "branch_name": "HINJEWADI",
    "branch_address": "GURUKRUPA HOSPITAL, BEHIND HITACHI ATM, NEAR LAXMI CHOWK, MARUNJI ROAD HINJEWADI",
    "branch_city": "PUNE",
    "branch_pincode": 411057,
    "branch_state": "MH",
    "branch_contact": "hwdi@tcifreight.in<br>9373713289<br><br>",
    "lat": 18.5895985,
    "lon": 73.73686595
  },
  {
    "branch_code": "HWRH",
    "branch_name": "HOWRAH (CAL)",
    "branch_address": "174, BELLILIOUS RD, OPP. PUSHPASHRI CINEMA, KADAMTALA, HOWRAH",
    "branch_city": "HOWRAH",
    "branch_pincode": 711101,
    "branch_state": "WB",
    "branch_contact": "hwrh@tcifreight.in<br>9330668757<br>7678488255<br>26437009",
    "lat": 22.59720554,
    "lon": 88.34595711
  },
  {
    "branch_code": "HYD",
    "branch_name": "HYDERABAD",
    "branch_address": "KHADER FUNCTION HALL 19-4-280/B/115/1, TADBAN, NEAR MIR ALAM FILTER ROAD, NH-7, BANGALORE HIGHWAY ROAD.",
    "branch_city": "HYDERABAD",
    "branch_pincode": 500064,
    "branch_state": "TS",
    "branch_contact": "hyd@tcifreight.in<br>8886665847<br>9533154586",
    "lat": 17.35552611,
    "lon": 78.45796674
  },
  {
    "branch_code": "HZB",
    "branch_name": "HAZARIBAGH",
    "branch_address": "KUMHAR TOLI",
    "branch_city": "HAZARIBAGH",
    "branch_pincode": 825301,
    "branch_state": "JH",
    "branch_contact": "hzb@tcifreight.in<br>7011653453<br>",
    "lat": 23.98252495,
    "lon": 85.37059619
  },
  {
    "branch_code": "HZR",
    "branch_name": "HAZIRA",
    "branch_address": "TCI HOUSE, SURAT-HAZIRA ROAD,AT & P.O. KAWAS, HAZIRA, DIST. SURAT",
    "branch_city": "HAZIRA",
    "branch_pincode": 394510,
    "branch_state": "GJ",
    "branch_contact": "hzr@tcifreight.in<br>9643804756<br>7011375029",
    "lat": 21.19020738,
    "lon": 72.72741351
  },
  {
    "branch_code": "IDA",
    "branch_name": "INDUSTRIAL AREA (JLD)",
    "branch_address": "O-4 INDUSTRIAL AREA",
    "branch_city": "JALANDHAR",
    "branch_pincode": 144004,
    "branch_state": "PB",
    "branch_contact": "ida@tcifreight.in<br>9569924633",
    "lat": 31.3549167,
    "lon": 75.57988362
  },
  {
    "branch_code": "IDP",
    "branch_name": "INDAPUR",
    "branch_address": "SHOP NO.6, JOTIRAM KACHARE, SHOPING CENTRE, PUNE HIGHWAY, AT-GAGARGAON, PO- BIJWADI, INDAPUR, DIST- PUNE",
    "branch_city": "PUNE",
    "branch_pincode": 413106,
    "branch_state": "MH",
    "branch_contact": "",
    "lat": 18.11853072,
    "lon": 75.02911525
  },
  {
    "branch_code": "IKR",
    "branch_name": "ICHALKARANJI",
    "branch_address": "K.P. & COMPANY COMPOUND, MAIN ROAD OPP. RANIBAGH",
    "branch_city": "ICHALKARANJI",
    "branch_pincode": 416115,
    "branch_state": "MH",
    "branch_contact": "ikr@tcifreight.in<br>7011544379<br>9372134809<br>2432516",
    "lat": 16.68520649,
    "lon": 74.46149024
  },
  {
    "branch_code": "IMTF",
    "branch_name": "IND. MODEL TOWNSHIP-FBD",
    "branch_address": "PLOT NO. RE-75 & 76, ZONE NO.7, SECTOR-69, HSIIDC, IMT FARIDABAD",
    "branch_city": "FARIDABAD",
    "branch_pincode": 121004,
    "branch_state": "HR",
    "branch_contact": "imtf@tcifreight.in<br>9625311027",
    "lat": 28.34338273,
    "lon": 77.32549067
  },
  {
    "branch_code": "IND",
    "branch_name": "INDORE",
    "branch_address": "TRANSPORT HOUSE, 87 TO 91, TRANSPORT NAGAR",
    "branch_city": "INDORE",
    "branch_pincode": 452001,
    "branch_state": "MP",
    "branch_contact": "ind@tcifreight.in<br>7835047180<br>7835047179<br>",
    "lat": 22.69833395,
    "lon": 75.91775258
  },
  {
    "branch_code": "IPM",
    "branch_name": "ICHCHAPURAM",
    "branch_address": "AMIN SAHEB PETA, ICHCHAPURAM BORDER P.O. PURUSHOTTAPURAM, DIST. SRIKAKULAM",
    "branch_city": "ICHCHAPURAM",
    "branch_pincode": 532322,
    "branch_state": "AP",
    "branch_contact": "ipm@tcifreight.in<br>7011642726<br>9437859750",
    "lat": 19.0021244,
    "lon": 84.68266653
  },
  {
    "branch_code": "IQE",
    "branch_name": "IQBALGANJ CHOWK (LDH)",
    "branch_address": "NEAR SANGLA SHIWALA MANDIR, IQBALGANJ CHOWK, QBALGANJ",
    "branch_city": "LUDHIANA",
    "branch_pincode": 141008,
    "branch_state": "PB",
    "branch_contact": "iqe@tcifreight.in<br>9569924642",
    "lat": 30.93061139,
    "lon": 75.83907566
  },
  {
    "branch_code": "ITS",
    "branch_name": "ITARSI",
    "branch_address": "DIVERTION ROAD, AVAM NAGAR, OPP. MAHINDRA TRACTOR AGENCY",
    "branch_city": "ITARSI",
    "branch_pincode": 461111,
    "branch_state": "MP",
    "branch_contact": "its@tcifreight.in<br>7011544266",
    "lat": 22.5746274,
    "lon": 77.77938538
  },
  {
    "branch_code": "JBN",
    "branch_name": "JOGBANI",
    "branch_address": "CHHOTU BHAGAT COMPOUND, NETAJI CHOWK, NEAR RAILWAY PHATAK, JOGBANI, DISTRICT - ARARIA",
    "branch_city": "JOGBANI",
    "branch_pincode": 854328,
    "branch_state": "BR",
    "branch_contact": "jbn@tcifreight.in<br>8448393466<br>242237",
    "lat": 26.3757486,
    "lon": 87.2899793
  },
  {
    "branch_code": "JBP",
    "branch_name": "JABALPUR",
    "branch_address": "E-16, CHANDAL BHATTA TRANSPORT NAGAR, DAMOHNAKA",
    "branch_city": "JABALPUR",
    "branch_pincode": 482002,
    "branch_state": "MP",
    "branch_contact": "jbp@tcifreight.in<br>7011062840<br>4047905<br>9300224761",
    "lat": 23.17520906,
    "lon": 79.87884581
  },
  {
    "branch_code": "JBUD",
    "branch_name": "JABALPUR UMARIYA DUNGARIA",
    "branch_address": "SHOP NO.2, MUSA MARKET AUDYOGIK CHHETRA, MARG GRAM SEMRA, DIST-JABALPUR",
    "branch_city": "JABALPUR",
    "branch_pincode": 482003,
    "branch_state": "MP",
    "branch_contact": "",
    "lat": 23.16581307,
    "lon": 79.9036811
  },
  {
    "branch_code": "JCR",
    "branch_name": "J.C.ROAD (BNG)",
    "branch_address": "TRANSPORT HOUSE NO 57/58, 2ND CROSS ,1ST FLOOR , KALASIPALAYAM NEW EXTN , BANGALORE",
    "branch_city": "BANGALORE",
    "branch_pincode": 560002,
    "branch_state": "KA",
    "branch_contact": "jcr@tcifreight.in<br>9342820239<br>32940446",
    "lat": 12.9634209,
    "lon": 77.57942001
  },
  {
    "branch_code": "JDP",
    "branch_name": "JODHPUR",
    "branch_address": "PLOT NO. 6, TRANSPORT NAGAR, BASANI SECOND PHASE",
    "branch_city": "JODHPUR",
    "branch_pincode": 342005,
    "branch_state": "RJ",
    "branch_contact": "jdp@tcifreight.in<br>8076557610<br>7011544361",
    "lat": 26.22633659,
    "lon": 73.02190031
  },
  {
    "branch_code": "JDSP",
    "branch_name": "JAGADISHPUR",
    "branch_address": "OPP. UPKAR PETROL PUMP, ROAD NO. 3, INDL. AREA JAGDISHPUR, DIST. AMETHI",
    "branch_city": "JAGDISHPUR",
    "branch_pincode": 227817,
    "branch_state": "UP",
    "branch_contact": "jdsp@tcifreight.in<br>7011544270",
    "lat": 26.456101,
    "lon": 81.6198203
  },
  {
    "branch_code": "JDT",
    "branch_name": "JODHBHAVIPET (SPR)",
    "branch_address": "E-5/1, MIDC AKKALKOT ROAD",
    "branch_city": "SHOLAPUR",
    "branch_pincode": 413006,
    "branch_state": "MH",
    "branch_contact": "jdt@tcifreight.in<br>7875578513<br>",
    "lat": 17.65511244,
    "lon": 75.94928172
  },
  {
    "branch_code": "JEDI",
    "branch_name": "JEEDIPALLY",
    "branch_address": "SHOP NO.10, H NO.6-61/4, SY NO.520 & 539, MANOHARABAD VILL, JEEDIPALLY MANDAL, DIST MEDAK",
    "branch_city": "MEDCHAL",
    "branch_pincode": 502336,
    "branch_state": "TS",
    "branch_contact": "jedi@tcifreight.in<br>8527591008",
    "lat": 17.73608398,
    "lon": 78.50102575
  },
  {
    "branch_code": "JEJ",
    "branch_name": "JEJURI",
    "branch_address": "NAGRAJ BULDING ,NEAR NAYARA PETROL PUMP, LAVATHALESHWAR JEJURI ,TAL PURANDHAR DIST-PUNE",
    "branch_city": "PUNE",
    "branch_pincode": 412303,
    "branch_state": "MH",
    "branch_contact": "jej@tcifreight.in<br>9021138408<br>",
    "lat": 18.28985967,
    "lon": 74.1514539
  },
  {
    "branch_code": "JGDP",
    "branch_name": "JAGADALPUR",
    "branch_address": "MOTI TALABPARA, NEAR DAMODAR PETROL PUMP JAGADALPUR-, DIST. BASTAR",
    "branch_city": "JAGADALPUR",
    "branch_pincode": 494001,
    "branch_state": "CG",
    "branch_contact": "jgdp@tcifreight.in<br>7011653815<br>7879839516<br><br><br><br><br><br>",
    "lat": 19.04102858,
    "lon": 82.00581951
  },
  {
    "branch_code": "JGN",
    "branch_name": "JAI GAON",
    "branch_address": "N.S. ROAD, NEAR SUNSUNI BAZAR, OPP. ALLAHABAD BANK, JAIGAON, DISTT.- ALIPURDUAR",
    "branch_city": "JALPAIGURI",
    "branch_pincode": 736182,
    "branch_state": "WB",
    "branch_contact": "jgn@tcifreight.in<br>7289919666<br><br><br><br>",
    "lat": 26.802749,
    "lon": 89.39696743
  },
  {
    "branch_code": "JGR",
    "branch_name": "JAGI ROAD",
    "branch_address": "MAIN ROAD, SHILLBHANGA, POST - JAGI ROAD",
    "branch_city": "MORIGAON",
    "branch_pincode": 782410,
    "branch_state": "AS",
    "branch_contact": "jgr@tcifreight.in<br>",
    "lat": 26.10756388,
    "lon": 92.20601455
  },
  {
    "branch_code": "JGTG",
    "branch_name": "JAGATPUR GODOWN",
    "branch_address": "KENDRAPARA ROAD, OPP. POLICE STATION, JAGATPUR, CUTTACK",
    "branch_city": "CUTTACK",
    "branch_pincode": 754021,
    "branch_state": "OR",
    "branch_contact": "",
    "lat": 20.49222277,
    "lon": 85.95463276
  },
  {
    "branch_code": "JGYP",
    "branch_name": "JAGGAYYAPET",
    "branch_address": "PLOT NO.84, AUTONAGAR SHERUMAHAMMAD PETA (PO.) DISTT.- KRISHNA",
    "branch_city": "JAGGAYYAPET",
    "branch_pincode": 521175,
    "branch_state": "AP",
    "branch_contact": "jgyp@tcifreight.in<br>8099929352",
    "lat": 16.85797033,
    "lon": 80.14329126
  },
  {
    "branch_code": "JHS",
    "branch_name": "JHANSI",
    "branch_address": "NEAR SURI AUTOMOBILE WORKSHOP, UNNAO BALAJI ROAD",
    "branch_city": "JHANSI",
    "branch_pincode": 284002,
    "branch_state": "UP",
    "branch_contact": "jhs@tcifreight.in<br>8448393515<br>7851054699",
    "lat": 25.46159018,
    "lon": 78.5795812
  },
  {
    "branch_code": "JIG",
    "branch_name": "JIGNI",
    "branch_address": "GROUND FLOOR NO 515/2 H, MANCHANAHALLI VILLAGE, 2ND PHASE RING ROAD JIGANI INDU AREA, ANKEL,BANGALORE, BENGALURU RURAL",
    "branch_city": "BANGALORE",
    "branch_pincode": 560105,
    "branch_state": "KA",
    "branch_contact": "jig@tcifreight.in<br>9342818375",
    "lat": 12.787879,
    "lon": 77.62387669
  },
  {
    "branch_code": "JJPR",
    "branch_name": "JAJPUR ROAD",
    "branch_address": "ROYAL , TRIJANGA, PO.-DANAGADI, NR. MANPUR BRIDGE",
    "branch_city": "JAJPUR ROAD",
    "branch_pincode": 755026,
    "branch_state": "OR",
    "branch_contact": "jjpr@tcifreight.in<br>9692230324<br>",
    "lat": 20.96314873,
    "lon": 85.99667323
  },
  {
    "branch_code": "JLB",
    "branch_name": "JUNALATHI BAZAR",
    "branch_address": "OUTSIDE ASTODIA GATE, NEAR H P PETROL PUMP,JUNALTHI BAZAR",
    "branch_city": "AHMEDABAD",
    "branch_pincode": 380022,
    "branch_state": "GJ",
    "branch_contact": "jlb@tcifreight.in<br>7835047138<br>",
    "lat": 23.00368124,
    "lon": 72.58901557
  },
  {
    "branch_code": "JLD",
    "branch_name": "JULLUNDER CITY",
    "branch_address": "BUNGALOW NO. 3, N.N. PATEL CHOWK",
    "branch_city": "JULLUNDER CITY",
    "branch_pincode": 144008,
    "branch_state": "PB",
    "branch_contact": "jld@tcifreight.in<br>9569924644<br>2620054",
    "lat": 31.34275374,
    "lon": 75.56372432
  },
  {
    "branch_code": "JLG",
    "branch_name": "JALGAON",
    "branch_address": "TRANSPORT HOUSE, OPP. G.P.O",
    "branch_city": "JALGAON",
    "branch_pincode": 425001,
    "branch_state": "MH",
    "branch_contact": "jlg@tcifreight.in<br>9325906522<br>8956934049",
    "lat": 21.00417739,
    "lon": 75.55605153
  },
  {
    "branch_code": "JLN",
    "branch_name": "JALNA",
    "branch_address": "GODOWN NO.F-8, NEW MARKET YARD, RING ROAD",
    "branch_city": "JALNA",
    "branch_pincode": 431203,
    "branch_state": "MH",
    "branch_contact": "jln@tcifreight.in<br>9325906527",
    "lat": 19.82187469,
    "lon": 75.83811766
  },
  {
    "branch_code": "JMR",
    "branch_name": "JAMNAGAR",
    "branch_address": "PLOT NO-714/E,POLICE CHOWKI ROAD, GIDC, PHASE-2 DARED BY PASS",
    "branch_city": "JAMNAGAR",
    "branch_pincode": 361004,
    "branch_state": "GJ",
    "branch_contact": "jmr@tcifreight.in<br>7011642640<br>8585996373",
    "lat": 22.44135795,
    "lon": 70.04985688
  },
  {
    "branch_code": "JMT",
    "branch_name": "JEEDIMETLA (HYD)",
    "branch_address": "DP-87,MUNICIPAL DOOR NO.22-293, SURVEY NO.-262,DP COLONY,IDA JEEDIMETLA, HYDERABAD, MEDCHAL MALKANGIRI, TELANGANA",
    "branch_city": "HYDERABAD",
    "branch_pincode": 500055,
    "branch_state": "TS",
    "branch_contact": "jmt@tcifreight.in<br>7011063684<br>9533154592",
    "lat": 17.51714526,
    "lon": 78.4347303
  },
  {
    "branch_code": "JMW",
    "branch_name": "JAMMU TRANSPORT NAGAR",
    "branch_address": "PLOT NO. 15, NEAR POLICE STATION, TRANSPORT NAGAR, NARWAL",
    "branch_city": "JAMMU",
    "branch_pincode": 180005,
    "branch_state": "JK",
    "branch_contact": "jmw@tcifreight.in<br>7011063848<br>2473799",
    "lat": 32.74248694,
    "lon": 74.85719885
  },
  {
    "branch_code": "JND",
    "branch_name": "JUNAGADH",
    "branch_address": "GODOWN NO.4, C/O SATKAR TRANSPORT NAGAR, VILL.-SABALPUR",
    "branch_city": "JUNAGADH",
    "branch_pincode": 362037,
    "branch_state": "GJ",
    "branch_contact": "jnd@tcifreight.in<br>8586907686",
    "lat": 21.57481594,
    "lon": 70.47139074
  },
  {
    "branch_code": "JNGB",
    "branch_name": "JANGALPUR BOOKING",
    "branch_address": "GATE NO.- 1, GALI NO.- 4 (NEAR MAA KALI KATA), BOMBAY NATIONAL HIGHWAY, JANGALPUR, KOLKATA",
    "branch_city": "KOLKATA",
    "branch_pincode": 711411,
    "branch_state": "WB",
    "branch_contact": "jngb@tcifreight.in<br>7835047196",
    "lat": 22.6122497,
    "lon": 88.1915781
  },
  {
    "branch_code": "JNGP",
    "branch_name": "JANGALPUR KOLKATA",
    "branch_address": "GATE NO.- 1, GALI NO.- 4 (NEAR MAA KALI KATA), BOMBAY NATIONAL HIGHWAY, JANGALPUR",
    "branch_city": "KOLKATA",
    "branch_pincode": 711411,
    "branch_state": "WB",
    "branch_contact": "jngp@tcifreight.in<br>7011653058<br>9330668753<br>7011043572<br>",
    "lat": 22.6122497,
    "lon": 88.1915781
  },
  {
    "branch_code": "JNP",
    "branch_name": "JAUNPUR",
    "branch_address": "UPSIDC AGRO PARK, KARKHIYAON, JAUNPUR",
    "branch_city": "JAUNPUR",
    "branch_pincode": 221206,
    "branch_state": "UP",
    "branch_contact": "jnp@tcifreight.in<br>9311347529",
    "lat": 25.53345617,
    "lon": 82.82456423
  },
  {
    "branch_code": "JOR",
    "branch_name": "JORHAT",
    "branch_address": "DAG NO 3338 & 3391. PP 275/385 BLOCK NO 7, JORHAT TOWN, ASSAM",
    "branch_city": "JORHAT",
    "branch_pincode": 785001,
    "branch_state": "AS",
    "branch_contact": "jor@tcifreight.in<br>7011653196",
    "lat": 26.75432693,
    "lon": 94.20615043
  },
  {
    "branch_code": "JPR",
    "branch_name": "JAIPUR",
    "branch_address": "TRANSPORT HOUSE, G-4,TRANSPORT NAGAR",
    "branch_city": "JAIPUR",
    "branch_pincode": 302005,
    "branch_state": "RJ",
    "branch_contact": "jpr@tcifreight.in<br>jpr.bkg@tcifreight.in<br>jpr.dly@tcifreight.in<br>7835047190<br>7011544385<br>2360349",
    "lat": 26.88493189,
    "lon": 75.79245329
  },
  {
    "branch_code": "JRD",
    "branch_name": "JAROD",
    "branch_address": "SHOP NO.22, GROUND FLOOR, SHIVANANDAN COMPLEX, JAROD-WAGHODIA ROAD, JAROD CHAR RASTA, JAROD",
    "branch_city": "VADODARA",
    "branch_pincode": 391510,
    "branch_state": "GJ",
    "branch_contact": "jrd@tcifreight.in<br>8595298679",
    "lat": 22.36445725,
    "lon": 73.35992118
  },